Sch_div,School,Division,Street,City,State,Zip,Latitude,Longitude
Tappahannock Elementary Essex County Public Schools,Tappahannock Elementary,Essex County Public Schools,205 Elementary School Circle,Tappahannock,VA,22560,37.931841,-76.861734
Patrick Springs Primary Patrick County Public Schools,Patrick Springs Primary,Patrick County Public Schools,75 Elementary Lane,Patrick Springs,VA,24133,36.643265,-80.199517
Carysbrook Elementary Fluvanna County Public Schools,Carysbrook Elementary,Fluvanna County Public Schools,9172 James Madison Highway,Fork Union,VA,23055,37.81352,-78.244051
Lancaster Primary Lancaster County Public Schools,Lancaster Primary,Lancaster County Public Schools,36 Primary School Circle,Lancaster,VA,22503,37.751417,-76.416346
Mathews Elementary Mathews County Public Schools,Mathews Elementary,Mathews County Public Schools,"Rt 611, 347 Church Street",Mathews,VA,23109,37.438648,-76.329785
Cumberland Elementary Cumberland County Public Schools,Cumberland Elementary,Cumberland County Public Schools,60 School Rd,Cumberland,VA,23040,37.490737,-78.249792
Blackstone Primary Nottoway County Public Schools,Blackstone Primary,Nottoway County Public Schools,615 East Street,Blackstone,VA,23824,37.072838,-77.994646
Crewe Primary Nottoway County Public Schools,Crewe Primary,Nottoway County Public Schools,1953 Sunnyside Rd,Crewe,VA,23930,37.165133,-78.109593
Prince Edward Elementary Prince Edward County Public Schools,Prince Edward Elementary,Prince Edward County Public Schools,35 Eagle Dr.,Farmville,VA,23901,37.267205,-78.405593
Surry Elementary Surry County Public Schools,Surry Elementary,Surry County Public Schools,1600 Hollybush Rd,Dendron,VA,23839,37.079203,-76.902095
Frederick Douglass Elementary Winchester City Public Schools,Frederick Douglass Elementary,Winchester City Public Schools,100 Cedarmeade Ave,Winchester,VA,22601,39.151578,-78.180695
Garland R. Quarles Elementary Winchester City Public Schools,Garland R. Quarles Elementary,Winchester City Public Schools,1310 S Loudoun St,Winchester,VA,22601,39.172318,-78.16766
John Kerr Elementary Winchester City Public Schools,John Kerr Elementary,Winchester City Public Schools,427 Meadow Branch Ave,Winchester,VA,22601,39.186939,-78.191492
Appomattox Elementary Appomattox County Public Schools,Appomattox Elementary,Appomattox County Public Schools,176 Kids Place,Appomattox,VA,24522,37.352366,-78.838052
Buckingham Co Elementary Buckingham County Public Schools,Buckingham Co Elementary,Buckingham County Public Schools,40 Frank Harris Raod,Dillwyn,VA,23936,37.55294,-78.483887
Enderly Heights Elementary Buena Vista City Public Schools,Enderly Heights Elementary,Buena Vista City Public Schools,101 Woodland Ave,Buena Vista,VA,24416,37.714384,-79.364271
Oak Street Elementary Falls Church City Public Schools,Oak Street Elementary,Falls Church City Public Schools,601 S Oak St,Falls Church,VA,22046,38.883347,-77.183796
Nathanael Greene Elementary Greene County Public Schools,Nathanael Greene Elementary,Greene County Public Schools,8094 Spotswood Trail,Stanardsville,VA,22973,38.296084,-78.446276
Acquinton Elementary King William County Public Schools,Acquinton Elementary,King William County Public Schools,18550 King William Road,King William,VA,23086,37.692811,-77.034772
Waverly Yowell Elementary Madison County Public Schools,Waverly Yowell Elementary,Madison County Public Schools,1809 North Main Street,Madison,VA,22727,38.384616,-78.251926
Manassas Park Elementary Manassas Park City Public Schools,Manassas Park Elementary,Manassas Park City Public Schools,9298 Cougar Court,Manassas Park,VA,20111,38.7618,-77.42252
Lightfoot Elementary Orange County Public Schools,Lightfoot Elementary,Orange County Public Schools,11360 Zachary Taylor Hwy,Unionville,VA,22567,38.246079,-77.953327
Locust Grove Elementary Orange County Public Schools,Locust Grove Elementary,Orange County Public Schools,31208 Constitution Highway,Locust Grove,VA,22508,38.299285,-77.830028
Poquoson Elementary Poquoson City Public Schools,Poquoson Elementary,Poquoson City Public Schools,1033 Poquoson Ave,Poquoson,VA,23662,37.129376,-76.361283
Belfield Elementary Greensville County Public Schools,Belfield Elementary,Greensville County Public Schools,515 Belfield Rd,Emporia,VA,23847,36.721079,-77.539348
Callaghan Elementary Alleghany Highlands Public Schools,Callaghan Elementary,Alleghany Highlands Public Schools,4050 Midland Trail,Covington,VA,24426,37.813229,-80.078109
Mountain View Elementary Alleghany Highlands Public Schools,Mountain View Elementary,Alleghany Highlands Public Schools,100 Gleason Dr.,Covington,VA,24426,37.800745,-79.874017
Sharon Elementary Alleghany Highlands Public Schools,Sharon Elementary,Alleghany Highlands Public Schools,606 S. Lexington Ave,Covington,VA,24426,37.784073,-79.991508
D.G. Cooley Elementary Clarke County Public Schools,D.G. Cooley Elementary,Clarke County Public Schools,240 Westwood Rd,Berryville,VA,22611,39.158881,-78.001449
Dinwiddie Elementary Dinwiddie County Public Schools,Dinwiddie Elementary,Dinwiddie County Public Schools,13811 Boydton Plank Rd,Dinwiddie,VA,23841,37.080851,-77.582093
Midway Elementary Dinwiddie County Public Schools,Midway Elementary,Dinwiddie County Public Schools,5511 Midway Rd,Church Road,VA,23833,37.195759,-77.614983
Hugh Mercer Elementary Fredericksburg City Public Schools,Hugh Mercer Elementary,Fredericksburg City Public Schools,2100 Cowan Blvd,Fredericksburg,VA,22401,38.302698,-77.486802
Lafayette Elementary Fredericksburg City Public Schools,Lafayette Elementary,Fredericksburg City Public Schools,3 Learning Lane,Fredericksburg,VA,22401,38.275328,-77.490354
Fairview Elementary Grayson County Public Schools,Fairview Elementary,Grayson County Public Schools,2323 Fairview Rd,Galax,VA,24333,36.583834,-80.910788
Independence Elementary Grayson County Public Schools,Independence Elementary,Grayson County Public Schools,915 E Main St,Independence,VA,24348,36.62312,-81.136813
Ruckersville Elementary Greene County Public Schools,Ruckersville Elementary,Greene County Public Schools,105 Progress Place,Ruckersville,VA,22968,38.24304,-78.389062
Dupont Elementary Hopewell City Public Schools,Dupont Elementary,Hopewell City Public Schools,300 S. 18th Avenue,Hopewell,VA,23860,37.295611,-77.30359
Harry E. James Elementary Hopewell City Public Schools,Harry E. James Elementary,Hopewell City Public Schools,1807 Arlington Rd,Hopewell,VA,23860,37.277855,-77.291475
Patrick Copeland Elementary Hopewell City Public Schools,Patrick Copeland Elementary,Hopewell City Public Schools,400 Westhill Drive,Hopewell,VA,23860,37.289287,-77.316994
Potomac Elementary King George County Public Schools,Potomac Elementary,King George County Public Schools,16495 15th Street,Dahlgren,VA,22448,38.336086,-77.052877
Harrington Waddell Elementary Lexington City Public Schools,Harrington Waddell Elementary,Lexington City Public Schools,100 Pendleton Place,Lexington,VA,24450,37.781652,-79.452634
Victoria Elementary Lunenburg County Public Schools,Victoria Elementary,Lunenburg County Public Schools,1521 Eighth St,Victoria,VA,23974,36.996185,-78.22363
Albert Harris Elementary Martinsville City Public Schools,Albert Harris Elementary,Martinsville City Public Schools,710 Smith Road,Martinsville,VA,24112,36.691691,-79.885525
Patrick Henry Elementary Martinsville City Public Schools,Patrick Henry Elementary,Martinsville City Public Schools,1810 Church Street Ext.,Martinsville,VA,24112,36.684924,-79.856128
Gordon-Barbour Elementary Orange County Public Schools,Gordon-Barbour Elementary,Orange County Public Schools,500 W Baker Street,Gordonsville,VA,22942,38.138009,-78.1929
Orange Elementary Orange County Public Schools,Orange Elementary,Orange County Public Schools,230 Montevista Avenue,Orange,VA,22960,38.247827,-78.11779
Cool Spring Elementary Petersburg City Public Schools,Cool Spring Elementary,Petersburg City Public Schools,1450 Talley Avenue,Petersburg,VA,23803,37.205221,-77.41489
Lakemont Elementary Petersburg City Public Schools,Lakemont Elementary,Petersburg City Public Schools,51 Gibbons St,Petersburg,VA,23803,37.235627,-77.372394
Pleasants Lane Elementary Petersburg City Public Schools,Pleasants Lane Elementary,Petersburg City Public Schools,100 Pleasants Lane,Petersburg,VA,23803,37.212402,-77.43157
Walnut Hill Elementary Petersburg City Public Schools,Walnut Hill Elementary,Petersburg City Public Schools,300 S Boulevard,Petersburg,VA,23805,37.202147,-77.385958
Pocahontas Elementary Powhatan County Public Schools,Pocahontas Elementary,Powhatan County Public Schools,4294 Anderson Hwy,Powhatan,VA,23139,37.560216,-77.948904
Powhatan Elementary Powhatan County Public Schools,Powhatan Elementary,Powhatan County Public Schools,4111 Old Buckingham Rd,Powhatan,VA,23139,37.551577,-77.934227
South Salem Elementary Salem City Public Schools,South Salem Elementary,Salem City Public Schools,1600 Carolyn Rd,Salem,VA,24153,37.27786,-80.082845
West Salem Elementary Salem City Public Schools,West Salem Elementary,Salem City Public Schools,520 N Bruffey St,Salem,VA,24153,37.296835,-80.075011
Arthur R. Ware Elementary Staunton City Public Schools,Arthur R. Ware Elementary,Staunton City Public Schools,330 Grubert Avenue,Staunton,VA,24401,38.160958,-79.098444
Bessie Weller Elementary Staunton City Public Schools,Bessie Weller Elementary,Staunton City Public Schools,600 Greenville Ave,Staunton,VA,24401,38.138652,-79.072722
Thomas C. McSwain Elementary Staunton City Public Schools,Thomas C. McSwain Elementary,Staunton City Public Schools,1101 N Coalter St,Staunton,VA,24401,38.163677,-79.057405
Amelia County Elementary Amelia County Public Schools,Amelia County Elementary,Amelia County Public Schools,8533 N Five Forks Rd,Amelia Court House,VA,23002,37.330802,-77.984839
Highland View Elementary Bristol City Public Schools,Highland View Elementary,Bristol City Public Schools,1425 Eads St,Bristol,VA,24201,36.607048,-82.164131
Joseph Van Pelt Elementary Bristol City Public Schools,Joseph Van Pelt Elementary,Bristol City Public Schools,350 Spring Hill Terrace,Bristol,VA,24201,36.622156,-82.139016
Stonewall Jackson Elementary Bristol City Public Schools,Stonewall Jackson Elementary,Bristol City Public Schools,2045 Euclid Ave,Bristol,VA,24201,36.597544,-82.207105
Washington-Lee Elementary Bristol City Public Schools,Washington-Lee Elementary,Bristol City Public Schools,185 Washington Lee Dr,Bristol,VA,24201,36.610927,-82.178096
Meherrin Powellton Elementary Brunswick County Public Schools,Meherrin Powellton Elementary,Brunswick County Public Schools,11555 Dry Bread Road,Lawrenceville,VA,23868,36.668978,-77.797292
Red Oak-Sturgeon Elementary Brunswick County Public Schools,Red Oak-Sturgeon Elementary,Brunswick County Public Schools,4081 Flatrock Road,Alberta,VA,23821,36.906263,-77.878578
Totaro Elementary Brunswick County Public Schools,Totaro Elementary,Brunswick County Public Schools,19350 Christanna Highway,Lawrenceville,VA,23868,36.778938,-77.871703
Bowling Green Elementary Caroline County Public Schools,Bowling Green Elementary,Caroline County Public Schools,17502 New Baltimore Road,Milford,VA,22514,38.024405,-77.342017
Lewis and Clark Elementary Caroline County Public Schools,Lewis and Clark Elementary,Caroline County Public Schools,18101 Clark & York Blvd,Ruther Glen,VA,22546,38.020171,-77.531564
Madison Elementary Caroline County Public Schools,Madison Elementary,Caroline County Public Schools,9075 Chance Place,Ruther Glen,VA,22546,38.026612,-77.490298
Bacon District Elementary Charlotte County Public Schools,Bacon District Elementary,Charlotte County Public Schools,840 Bacon School Rd,Saxe,VA,23967,36.88845,-78.565541
Eureka Elementary Charlotte County Public Schools,Eureka Elementary,Charlotte County Public Schools,315 Eureka School Rd,Keysville,VA,23947,37.042056,-78.551231
Phenix Elementary Charlotte County Public Schools,Phenix Elementary,Charlotte County Public Schools,400 Red House Road,Phenix,VA,23959,37.085024,-78.745231
Boyce Elementary Clarke County Public Schools,Boyce Elementary,Clarke County Public Schools,119 W Main St,Boyce,VA,22620,39.094959,-78.065705
Lakeview Elementary Colonial Heights City Public Schools,Lakeview Elementary,Colonial Heights City Public Schools,401 Taswell Ave,Colonial Heights,VA,23834,37.266264,-77.415101
North Elementary Colonial Heights City Public Schools,North Elementary,Colonial Heights City Public Schools,3201 Dale Ave,Colonial Heights,VA,23834,37.273512,-77.408495
Tussing Elementary Colonial Heights City Public Schools,Tussing Elementary,Colonial Heights City Public Schools,5501 Conduit Rd,Colonial Heights,VA,23834,37.281359,-77.37014
McCleary Elementary Craig County Public Schools,McCleary Elementary,Craig County Public Schools,25345 Craigs Creek Road,New Castle,VA,24127,37.516108,-80.085491
Clintwood Elementary Dickenson County Public Schools,Clintwood Elementary,Dickenson County Public Schools,150 Elementary Circle,Clintwood,VA,24228,37.157848,-82.44304
Ervinton Elementary Dickenson County Public Schools,Ervinton Elementary,Dickenson County Public Schools,195 Ervinton Circle,Nora,VA,24272,37.067336,-82.343513
Sandlick Elementary Dickenson County Public Schools,Sandlick Elementary,Dickenson County Public Schools,186 Anderson Lane,Birchleaf,VA,24220,37.181151,-82.275719
Southside Elementary Dinwiddie County Public Schools,Southside Elementary,Dinwiddie County Public Schools,10305 Boydton Plank Rd,Dinwiddie,VA,23841,37.129805,-77.535245
Sunnyside Elementary Dinwiddie County Public Schools,Sunnyside Elementary,Dinwiddie County Public Schools,10203 Melvin B. Alsbrooks Avenue,Mckenney,VA,23872,36.987646,-77.726804
Sutherland Elementary Dinwiddie County Public Schools,Sutherland Elementary,Dinwiddie County Public Schools,6000 R. B. Pamplin Drive,Sutherland,VA,23885,37.180418,-77.575347
S.P. Morton Elementary Franklin City Public Schools,S.P. Morton Elementary,Franklin City Public Schools,300 Morton Street,Franklin,VA,23851,36.663214,-76.925229
Galax Elementary Galax City Public Schools,Galax Elementary,Galax City Public Schools,300 McArthur Street,Galax,VA,24333,36.658492,-80.925026
Abingdon Elementary Gloucester County Public Schools,Abingdon Elementary,Gloucester County Public Schools,7087 Powhatan Drive,Hayes,VA,23072,37.291765,-76.513489
Achilles Elementary Gloucester County Public Schools,Achilles Elementary,Gloucester County Public Schools,9306 Guinea Road,Hayes,VA,23072,37.278392,-76.442051
Bethel Elementary Gloucester County Public Schools,Bethel Elementary,Gloucester County Public Schools,2991 Hickory Fork Rd,Gloucester,VA,23061,37.410684,-76.605608
Botetourt Elementary Gloucester County Public Schools,Botetourt Elementary,Gloucester County Public Schools,6361 Main Street,Gloucester,VA,23061,37.416746,-76.534101
Petsworth Elementary Gloucester County Public Schools,Petsworth Elementary,Gloucester County Public Schools,10658 Geo Washington Mem Hwy,Gloucester,VA,23061,37.417234,-76.536791
Byrd Elementary Goochland County Public Schools,Byrd Elementary,Goochland County Public Schools,2704 Hadensville Fife Rd,Goochland,VA,23063,37.757418,-78.05722
Goochland Elementary Goochland County Public Schools,Goochland Elementary,Goochland County Public Schools,3150 River Road West,Goochland,VA,23063,37.695934,-77.890161
Randolph Elementary Goochland County Public Schools,Randolph Elementary,Goochland County Public Schools,1552 Sheppard Town Rd,Crozier,VA,23039,37.685064,-77.795199
Greensville Elementary Greensville County Public Schools,Greensville Elementary,Greensville County Public Schools,1101 Sussex Dr,Emporia,VA,23847,36.716398,-77.529112
Highland Elementary Highland County Public Schools,Highland Elementary,Highland County Public Schools,252 Myers/Moon Rd,Monterey,VA,24465,38.407475,-79.579778
King George Elementary King George County Public Schools,King George Elementary,King George County Public Schools,10381 Ridge Road,King George,VA,22485,38.258964,-77.164351
Jouett Elementary Louisa County Public Schools,Jouett Elementary,Louisa County Public Schools,315 Jouett School Rd,Mineral,VA,23117,37.898043,-77.843711
Moss-Nuckols Elementary Louisa County Public Schools,Moss-Nuckols Elementary,Louisa County Public Schools,2055 Courthouse Road,Louisa,VA,23093,37.95606,-78.0888
Thomas Jefferson Elementary Louisa County Public Schools,Thomas Jefferson Elementary,Louisa County Public Schools,1782 Jefferson Hwy,Louisa,VA,23093,37.994497,-77.962565
Trevilians Elementary Louisa County Public Schools,Trevilians Elementary,Louisa County Public Schools,2035 Spotswood Trail,Louisa,VA,23093,38.075416,-78.099992
Kenbridge Elementary Lunenburg County Public Schools,Kenbridge Elementary,Lunenburg County Public Schools,215 Nottoway Falls Rd,Kenbridge,VA,23944,36.967677,-78.122822
Chase City Elementary Mecklenburg County Public Schools,Chase City Elementary,Mecklenburg County Public Schools,5450 Highway Forty-Seven,Chase City,VA,23924,36.771496,-78.425379
Clarksville Elementary Mecklenburg County Public Schools,Clarksville Elementary,Mecklenburg County Public Schools,6825 Skipwith Road,Skipwith,VA,23968,36.705649,-78.496145
South Hill Elementary Mecklenburg County Public Schools,South Hill Elementary,Mecklenburg County Public Schools,1290 Plank Road,South Hill,VA,23970,36.719376,-78.160159
Middlesex Elementary Middlesex County Public Schools,Middlesex Elementary,Middlesex County Public Schools,823 Philpot Rd.,Locust Hill,VA,23092,37.588704,-76.503679
Rockfish River Elementary Nelson County Public Schools,Rockfish River Elementary,Nelson County Public Schools,200 Chapel Hollow Rd,Afton,VA,22920,37.94471,-78.838668
Tye River Elementary Nelson County Public Schools,Tye River Elementary,Nelson County Public Schools,5198 Thomas Nelson Hwy,Arrington,VA,22922,37.710042,-78.912977
George W. Watkins Elementary New Kent County Public Schools,George W. Watkins Elementary,New Kent County Public Schools,6501 New Kent Hwy,Quinton,VA,23141,37.529489,-77.098169
Northumberland Elementary Northumberland County Public Schools,Northumberland Elementary,Northumberland County Public Schools,757 Academic Lane,Heathsville,VA,22473,37.907037,-76.440478
Luray Elementary Page County Public Schools,Luray Elementary,Page County Public Schools,555 First St,Luray,VA,22835,38.658291,-78.455437
Shenandoah Elementary Page County Public Schools,Shenandoah Elementary,Page County Public Schools,529 4th Street,Shenandoah,VA,22849,38.485546,-78.621589
Springfield Elementary Page County Public Schools,Springfield Elementary,Page County Public Schools,158 Big Spring Lane,Rileyville,VA,22650,38.728415,-78.421522
Stanley Elementary Page County Public Schools,Stanley Elementary,Page County Public Schools,306 Aylor Grubbs Ave,Stanley,VA,22851,38.578299,-78.502867
Flat Rock Elementary Powhatan County Public Schools,Flat Rock Elementary,Powhatan County Public Schools,2210 Batterson Road,Powhatan,VA,23139,37.519169,-77.798584
David A. Harrison Elementary Prince George County Public Schools,David A. Harrison Elementary,Prince George County Public Schools,12900 E Quaker Rd,Disputanta,VA,23842,37.134458,-77.227687
L.L. Beazley Elementary Prince George County Public Schools,L.L. Beazley Elementary,Prince George County Public Schools,6700 Courthouse Rd,Prince George,VA,23875,37.224655,-77.284627
North Elementary Prince George County Public Schools,North Elementary,Prince George County Public Schools,11106 Old Stage Rd,Prince George,VA,23875,37.232421,-77.208867
South Elementary Prince George County Public Schools,South Elementary,Prince George County Public Schools,13400 Prince George Dr,Disputanta,VA,23842,37.128328,-77.311547
Critzer Elementary Pulaski County Public Schools,Critzer Elementary,Pulaski County Public Schools,100 Critzer Dr,Pulaski,VA,24301,37.059218,-80.74164
Dublin Elementary Pulaski County Public Schools,Dublin Elementary,Pulaski County Public Schools,600 Dunlap St,Dublin,VA,24084,37.101792,-80.678427
Riverlawn Elementary Pulaski County Public Schools,Riverlawn Elementary,Pulaski County Public Schools,8100 Beth Nelson Drive,Fairlawn,VA,24141,37.152155,-80.564225
Snowville Elementary Pulaski County Public Schools,Snowville Elementary,Pulaski County Public Schools,4858 Lead Mine Rd,Hiwassee,VA,24347,37.023302,-80.592691
Central Elementary Rockbridge County Public Schools,Central Elementary,Rockbridge County Public Schools,85 Central Road,Lexington,VA,24450,37.780876,-79.434304
Fairfield Elementary Rockbridge County Public Schools,Fairfield Elementary,Rockbridge County Public Schools,20 Fairfield School Rd,Fairfield,VA,24435,37.877095,-79.293862
Mountain View Elementary Rockbridge County Public Schools,Mountain View Elementary,Rockbridge County Public Schools,20 Burger Circle,Buena Vista,VA,24416,37.781345,-79.355845
Natural Bridge Elementary Rockbridge County Public Schools,Natural Bridge Elementary,Rockbridge County Public Schools,42 Natural Bridge School Rd.,Natural Bridge Station,VA,24479,37.620172,-79.499814
East Salem Elementary Salem City Public Schools,East Salem Elementary,Salem City Public Schools,1765 Boulevard,Salem,VA,24153,37.28814,-80.067762
G.W. Carver Elementary Salem City Public Schools,G.W. Carver Elementary,Salem City Public Schools,6 Fourth St,Salem,VA,24153,37.286076,-80.057155
Capron Elementary Southampton County Public Schools,Capron Elementary,Southampton County Public Schools,18414 Southampton Pky,Capron,VA,23829,36.704779,-77.189808
Meherrin Elementary Southampton County Public Schools,Meherrin Elementary,Southampton County Public Schools,28600 Grays Shop Rd.,Newsoms,VA,23874,36.630984,-77.13276
Nottoway Elementary Southampton County Public Schools,Nottoway Elementary,Southampton County Public Schools,13093 Ivor Rd.,Sedley,VA,23878,36.841915,-76.985968
Riverdale Elementary Southampton County Public Schools,Riverdale Elementary,Southampton County Public Schools,31023 Camp Parkway,Courtland,VA,23837,36.691654,-76.980189
Sussex Central Elementary Sussex County Public Schools,Sussex Central Elementary,Sussex County Public Schools,21392 Sussex Drive,Stony Creek,VA,23882,36.917975,-77.253561
West Point Elementary West Point Public Schools,West Point Elementary,West Point Public Schools,1060 Thompson Ave,West Point,VA,23181,37.557855,-76.795128
Cople Elementary Westmoreland County Public Schools,Cople Elementary,Westmoreland County Public Schools,7114 Cople Highway,Hague,VA,22469,38.073536,-76.675902
Washington District Elementary Westmoreland County Public Schools,Washington District Elementary,Westmoreland County Public Schools,454 Oak Grove Road,Colonial Beach,VA,22443,38.182547,-77.007303
Belle Heth Elementary Radford City Public Schools,Belle Heth Elementary,Radford City Public Schools,151 George Street,Radford,VA,24141,37.132311,-80.557304
Nottoway Intermediate Nottoway County Public Schools,Nottoway Intermediate,Nottoway County Public Schools,5285 Old Nottoway Road,Crewe,VA,23930,37.123654,-78.06658
Daniel Morgan Intermediate Winchester City Public Schools,Daniel Morgan Intermediate,Winchester City Public Schools,48 S. Purcell St.,Winchester,VA,22601,39.179167,-78.150463
Charles City County Elementary Charles City County Public Schools,Charles City County Elementary,Charles City County Public Schools,10049 Courthouse Rd,Charles City,VA,23030,37.347554,-77.076313
King & Queen Elementary King and Queen County Public Schools,King & Queen Elementary,King and Queen County Public Schools,24667 The Trail,Mattaponi,VA,23110,37.613741,-76.781952
Lawson-Marriott Elementary King and Queen County Public Schools,Lawson-Marriott Elementary,King and Queen County Public Schools,1599 Newtown Rd,St Stephens Church,VA,23148,37.823669,-77.062393
Kiptopeke Elementary Northampton County Public Schools,Kiptopeke Elementary,Northampton County Public Schools,24023 Fairview Rd,Cape Charles,VA,23310,37.252287,-75.970391
Occohannock Elementary Northampton County Public Schools,Occohannock Elementary,Northampton County Public Schools,4208 Seaside Rd,Exmore,VA,23350,37.521221,-75.815543
Hardin Reynolds Memorial School Patrick County Public Schools,Hardin Reynolds Memorial School,Patrick County Public Schools,3597 Dogwood Rd,Critz,VA,24082,36.631199,-80.145514
Fluvanna Middle Fluvanna County Public Schools,Fluvanna Middle,Fluvanna County Public Schools,3717 Central Plains Road,Palmyra,VA,22963,37.824484,-78.27451
Lancaster Middle Lancaster County Public Schools,Lancaster Middle,Lancaster County Public Schools,191 School Street,Kilmarnock,VA,22482,37.712703,-76.38303
Parry McCluer Middle Buena Vista City Public Schools,Parry McCluer Middle,Buena Vista City Public Schools,2329 Chestnut Ave,Buena Vista,VA,24416,37.736796,-79.351204
Indian Valley Elementary Floyd County Public Schools,Indian Valley Elementary,Floyd County Public Schools,4130 Indian Valley Rd NW,Radford,VA,24141,36.916533,-80.539206
Richmond County Elementary Richmond County Public Schools,Richmond County Elementary,Richmond County Public Schools,361 Walnut St,Warsaw,VA,22572,37.945581,-76.744556
Jeter-Watson Elementary Alleghany Highlands Public Schools,Jeter-Watson Elementary,Alleghany Highlands Public Schools,560 West Indian Valley Road,Covington,VA,24426,37.752741,-79.994604
Millboro Elementary Bath County Public Schools,Millboro Elementary,Bath County Public Schools,411 Church Street,Millboro,VA,24460,37.977456,-79.606452
Valley Elementary Bath County Public Schools,Valley Elementary,Bath County Public Schools,98 Panther Drive,Hot Springs,VA,24445,37.973118,-79.852283
Council Elementary/Middle Buchanan County Public Schools,Council Elementary/Middle,Buchanan County Public Schools,7608 Helen Henderson Hwy,Honaker,VA,24260,37.083134,-82.082111
Hurley Elementary/Middle Buchanan County Public Schools,Hurley Elementary/Middle,Buchanan County Public Schools,6911 Hurley Road,Hurley,VA,24620,37.385259,-82.000457
Twin Valley Elementary/Middle Buchanan County Public Schools,Twin Valley Elementary/Middle,Buchanan County Public Schools,9017 Riverside Drive,Oakwood,VA,24631,37.204331,-81.975077
Colonial Beach Elementary Colonial Beach Public Schools,Colonial Beach Elementary,Colonial Beach Public Schools,102 First Street,Colonial Beach,VA,22443,38.258587,-76.968674
Check Elementary Floyd County Public Schools,Check Elementary,Floyd County Public Schools,6810 Floyd Highway North,Check,VA,24072,37.034823,-80.164296
Floyd Elementary Floyd County Public Schools,Floyd Elementary,Floyd County Public Schools,531 Oak Hill Drive,Floyd,VA,24091,36.910561,-80.307861
Willis Elementary Floyd County Public Schools,Willis Elementary,Floyd County Public Schools,5075 Floyd Highway S,Willis,VA,24380,36.863622,-80.466392
Macy Mcclaugherty Elementary/Middle Giles County Public Schools,Macy Mcclaugherty Elementary/Middle,Giles County Public Schools,1001 Henson Ave,Pearisburg,VA,24134,37.324937,-80.727946
Fries Elementary Grayson County Public Schools,Fries Elementary,Grayson County Public Schools,114 E Main St,Fries,VA,24330,36.714468,-80.973649
Grayson Highlands Grayson County Public Schools,Grayson Highlands,Grayson County Public Schools,6459 Troutdale Hwy.,Troutdale,VA,24378,36.651927,-81.406467
Norton Elementary Norton City Public Schools,Norton Elementary,Norton City Public Schools,205 E Park Ave,Norton,VA,24273,36.941704,-82.622368
Blue Ridge Elementary Patrick County Public Schools,Blue Ridge Elementary,Patrick County Public Schools,5135 Ararat Hwy,Ararat,VA,24053,36.600208,-80.510299
Stuart Elementary Patrick County Public Schools,Stuart Elementary,Patrick County Public Schools,314 Staples Ave,Stuart,VA,24171,36.641232,-80.275441
Woolwine Elementary Patrick County Public Schools,Woolwine Elementary,Patrick County Public Schools,9993 Woolwine Hwy,Woolwine,VA,24185,36.787992,-80.275506
Rappahannock County Elementary Rappahannock County Public Schools,Rappahannock County Elementary,Rappahannock County Public Schools,34 Schoolhouse Road,Washington,VA,22747,38.688017,-78.176358
Dryden Elementary Lee County Public Schools,Dryden Elementary,Lee County Public Schools,176 School House Ridge Road,Dryden,VA,24243,36.779056,-82.941257
Elk Knob Elementary Lee County Public Schools,Elk Knob Elementary,Lee County Public Schools,148 Hornet Loop,Pennington Gap,VA,24277,36.730259,-82.99273
Flatwoods Elementary Lee County Public Schools,Flatwoods Elementary,Lee County Public Schools,205 Flatwoods School Road,Jonesville,VA,24263,36.650518,-83.233765
Rose Hill Elementary Lee County Public Schools,Rose Hill Elementary,Lee County Public Schools,150 Rose Hill Drive,Rose Hill,VA,24281,36.676691,-83.3641
St. Charles Elementary Lee County Public Schools,St. Charles Elementary,Lee County Public Schools,2434 St. Charles Road,St Charles,VA,24282,36.803812,-83.057236
Elydale Middle Lee County Public Schools,Elydale Middle,Lee County Public Schools,128 Elydale Road,Ewing,VA,24248,36.628413,-83.528753
Jonesville Middle Lee County Public Schools,Jonesville Middle,Lee County Public Schools,160 Bulldog Circle,Jonesville,VA,24263,36.68417,-83.12372
Pennington Middle Lee County Public Schools,Pennington Middle,Lee County Public Schools,121 Bobcat Circle,Pennington Gap,VA,24277,36.763204,-83.01615
Coeburn Primary Wise County Public Schools,Coeburn Primary,Wise County Public Schools,332 School House Hill Dr.,Coeburn,VA,24230,36.948012,-82.468514
Union Primary Wise County Public Schools,Union Primary,Wise County Public Schools,2945 Second Avenue East,Big Stone Gap,VA,24219,36.884109,-82.738036
Wise Primary Wise County Public Schools,Wise Primary,Wise County Public Schools,323 Railroad Ave SE,Wise,VA,24293,36.973482,-82.57694
Bethel Manor Elementary York County Public Schools,Bethel Manor Elementary,York County Public Schools,1797 First St,Langley A F B,VA,23665,37.094179,-76.423846
Coventry Elementary York County Public Schools,Coventry Elementary,York County Public Schools,200 Owen Davis Blvd,Yorktown,VA,23693,37.106729,-76.439966
Dare Elementary York County Public Schools,Dare Elementary,York County Public Schools,300 Dare Rd,Yorktown,VA,23692,37.162591,-76.458157
Grafton Bethel Elementary York County Public Schools,Grafton Bethel Elementary,York County Public Schools,410 Lakeside Dr,Grafton,VA,23692,37.148486,-76.453517
Magruder Elementary York County Public Schools,Magruder Elementary,York County Public Schools,700 Penniman Rd,Williamsburg,VA,23185,37.266746,-76.673128
Seaford Elementary York County Public Schools,Seaford Elementary,York County Public Schools,1105 Seaford Rd,Seaford,VA,23696,37.186171,-76.445046
Tabb Elementary York County Public Schools,Tabb Elementary,York County Public Schools,3711 Big Bethel Rd,Yorktown,VA,23693,37.11351,-76.431289
Waller Mill Elementary York County Public Schools,Waller Mill Elementary,York County Public Schools,314 Waller Mill Rd,Williamsburg,VA,23185,37.292421,-76.712102
Yorktown Elementary York County Public Schools,Yorktown Elementary,York County Public Schools,131 Siege Ln,Yorktown,VA,23692,37.198886,-76.505339
Albert W. Patrick III Elementary Hampton City Public Schools,Albert W. Patrick III Elementary,Hampton City Public Schools,160 Apollo Dr,Hampton,VA,23669,37.057048,-76.337199
Alfred S. Forrest Elementary Hampton City Public Schools,Alfred S. Forrest Elementary,Hampton City Public Schools,1406 Todds Ln,Hampton,VA,23666,37.041269,-76.425107
Armstrong Elementary Hampton City Public Schools,Armstrong Elementary,Hampton City Public Schools,3401 Matoaka Rd,Hampton,VA,23661,37.009718,-76.364555
Francis Asbury Elementary Hampton City Public Schools,Francis Asbury Elementary,Hampton City Public Schools,140 Beach Rd,Hampton,VA,23664,37.070256,-76.299556
Paul Burbank Elementary Hampton City Public Schools,Paul Burbank Elementary,Hampton City Public Schools,40 Tidemill Ln,Hampton,VA,23666,37.004507,-76.313201
Phillips Elementary Hampton City Public Schools,Phillips Elementary,Hampton City Public Schools,703 Lemaster Ave,Hampton,VA,23669,37.061031,-76.317306
Samuel P. Langley Elementary Hampton City Public Schools,Samuel P. Langley Elementary,Hampton City Public Schools,16 Rockwell Rd,Hampton,VA,23669,37.06847,-76.333322
A.W.E. Bassette Elementary Hampton City Public Schools,A.W.E. Bassette Elementary,Hampton City Public Schools,671 Bell St,Hampton,VA,23661,37.016542,-76.376249
Aberdeen Elementary Hampton City Public Schools,Aberdeen Elementary,Hampton City Public Schools,1424 Aberdeen Rd,Hampton,VA,23666,37.0335,-76.405372
Barron Elementary Hampton City Public Schools,Barron Elementary,Hampton City Public Schools,45 Fox Hill Rd,Hampton,VA,23669,37.047987,-76.341854
Captain John Smith Elementary Hampton City Public Schools,Captain John Smith Elementary,Hampton City Public Schools,379 Woodland Rd,Hampton,VA,23669,37.045496,-76.323959
Jane H. Bryan Elementary Hampton City Public Schools,Jane H. Bryan Elementary,Hampton City Public Schools,1021 N Mallory St,Hampton,VA,23663,37.027535,-76.313644
Mary S. Peake Elementary Hampton City Public Schools,Mary S. Peake Elementary,Hampton City Public Schools,57 Salina St,Hampton,VA,23669,37.049082,-76.355052
Mary T. Christian Elementary Hampton City Public Schools,Mary T. Christian Elementary,Hampton City Public Schools,2009 Andrews Blvd,Hampton,VA,23663,37.046048,-76.312152
Mary W. Jackson Elementary Hampton City Public Schools,Mary W. Jackson Elementary,Hampton City Public Schools,113 Wellington Dr,Hampton,VA,23666,37.035565,-76.439114
William Mason Cooper Elementary Hampton City Public Schools,William Mason Cooper Elementary,Hampton City Public Schools,200 Marcella Rd,Hampton,VA,23666,37.052141,-76.385068
Axton Elementary Henry County Public Schools,Axton Elementary,Henry County Public Schools,1500 Axton School Road,Axton,VA,24054,36.661081,-79.713536
Campbell Court Elementary Henry County Public Schools,Campbell Court Elementary,Henry County Public Schools,220 Campbell Ct,Bassett,VA,24055,36.757001,-79.982499
Drewry Mason Elementary Henry County Public Schools,Drewry Mason Elementary,Henry County Public Schools,45 Drewry Mason Drive,Ridgeway,VA,24148,36.573383,-79.861753
Meadow View Elementary Henry County Public Schools,Meadow View Elementary,Henry County Public Schools,740 Figsboro Road,Martinsville,VA,24112,36.750161,-79.880239
Rich Acres Elementary Henry County Public Schools,Rich Acres Elementary,Henry County Public Schools,400 Rich Acres School Rd,Martinsville,VA,24112,36.63921,-79.872371
Sanville Elementary Henry County Public Schools,Sanville Elementary,Henry County Public Schools,19 Sanville School Rd,Bassett,VA,24055,36.716217,-80.052528
Stanleytown Elementary Henry County Public Schools,Stanleytown Elementary,Henry County Public Schools,74 Edgewood Dr,Stanleytown,VA,24168,36.736815,-79.940009
Tidewater Park Elementary Norfolk City Public Schools,Tidewater Park Elementary,Norfolk City Public Schools,1045 E Brambleton Ave,Norfolk,VA,23504,36.850301,-76.277469
Ocean View Elementary Norfolk City Public Schools,Ocean View Elementary,Norfolk City Public Schools,350 W. Government Ave.,Norfolk,VA,23503,36.955635,-76.261602
Bay View Elementary Norfolk City Public Schools,Bay View Elementary,Norfolk City Public Schools,1434 Bay View Blvd,Norfolk,VA,23503,36.928629,-76.179648
Camp Allen Elementary Norfolk City Public Schools,Camp Allen Elementary,Norfolk City Public Schools,501 C Street,Norfolk,VA,23505,36.928404,-76.296719
Chesterfield Elementary Norfolk City Public Schools,Chesterfield Elementary,Norfolk City Public Schools,2915 Westminster Ave,Norfolk,VA,23504,36.844514,-76.251268
Coleman Place Elementary Norfolk City Public Schools,Coleman Place Elementary,Norfolk City Public Schools,2445 Palmyra St.,Norfolk,VA,23513,36.870208,-76.240997
Granby Elementary Norfolk City Public Schools,Granby Elementary,Norfolk City Public Schools,7101 Newport Ave,Norfolk,VA,23505,36.907888,-76.280856
Ingleside Elementary Norfolk City Public Schools,Ingleside Elementary,Norfolk City Public Schools,976 Ingleside Rd,Norfolk,VA,23502,36.853449,-76.238281
Jacox Elementary Norfolk City Public Schools,Jacox Elementary,Norfolk City Public Schools,1300 Marshall Ave,Norfolk,VA,23504,36.856346,-76.264903
James Monroe Elementary Norfolk City Public Schools,James Monroe Elementary,Norfolk City Public Schools,520 W 29th St,Norfolk,VA,23508,36.875565,-76.290224
Larchmont Elementary Norfolk City Public Schools,Larchmont Elementary,Norfolk City Public Schools,1145 Bolling Ave,Norfolk,VA,23508,36.890835,-76.300619
Larrymore Elementary Norfolk City Public Schools,Larrymore Elementary,Norfolk City Public Schools,7600 Halprin Dr,Norfolk,VA,23518,36.912043,-76.221722
Lindenwood Elementary Norfolk City Public Schools,Lindenwood Elementary,Norfolk City Public Schools,2700 Ludlow St,Norfolk,VA,23504,36.86877,-76.270648
Little Creek Elementary Norfolk City Public Schools,Little Creek Elementary,Norfolk City Public Schools,7900 Tarpon Place,Norfolk,VA,23518,36.917158,-76.209397
Mary Calcott Elementary Norfolk City Public Schools,Mary Calcott Elementary,Norfolk City Public Schools,137 Westmont Avenue,Norfolk,VA,23503,36.937584,-76.26353
Norview Elementary Norfolk City Public Schools,Norview Elementary,Norfolk City Public Schools,6401 Chesapeake Blvd,Norfolk,VA,23513,36.897174,-76.239526
Oceanair Elementary Norfolk City Public Schools,Oceanair Elementary,Norfolk City Public Schools,600 Dudley Avenue,Norfolk,VA,23503,36.941969,-76.251275
Richard Bowling Elementary Norfolk City Public Schools,Richard Bowling Elementary,Norfolk City Public Schools,2700 E. Princess Anne Rd.,Norfolk,VA,23504,36.855912,-76.257296
Sewells Point Elementary Norfolk City Public Schools,Sewells Point Elementary,Norfolk City Public Schools,7928 Hampton Blvd,Norfolk,VA,23505,36.922475,-76.314667
Sherwood Forest Elementary Norfolk City Public Schools,Sherwood Forest Elementary,Norfolk City Public Schools,3035 Sherwood Forest Lane,Norfolk,VA,23513,36.877019,-76.237988
St. Helena Elementary Norfolk City Public Schools,St. Helena Elementary,Norfolk City Public Schools,903 S Main St,Norfolk,VA,23523,36.830952,-76.284524
Suburban Park Elementary Norfolk City Public Schools,Suburban Park Elementary,Norfolk City Public Schools,310 Thole St,Norfolk,VA,23505,36.905586,-76.268249
Tanners Creek Elementary Norfolk City Public Schools,Tanners Creek Elementary,Norfolk City Public Schools,1335 Longdale Dr,Norfolk,VA,23513,36.900357,-76.233249
Tarrallton Elementary Norfolk City Public Schools,Tarrallton Elementary,Norfolk City Public Schools,2080 Tarrallton Dr,Norfolk,VA,23518,36.925802,-76.221336
Walter Herron Taylor Elementary Norfolk City Public Schools,Walter Herron Taylor Elementary,Norfolk City Public Schools,1122 W. Princess Anne Road,Norfolk,VA,23507,36.868909,-76.304482
Willard Elementary Norfolk City Public Schools,Willard Elementary,Norfolk City Public Schools,1511 Willow Wood Dr,Norfolk,VA,23509,36.887895,-76.266644
Grandin Court Elementary Roanoke City Public Schools,Grandin Court Elementary,Roanoke City Public Schools,2815 Spessard Ave SW,Roanoke,VA,24015,37.245978,-79.991065
Monterey Elementary Roanoke City Public Schools,Monterey Elementary,Roanoke City Public Schools,4501 Oliver Rd NE,Roanoke,VA,24012,37.318595,-79.935592
Crystal Spring Elementary Roanoke City Public Schools,Crystal Spring Elementary,Roanoke City Public Schools,2620 Carolina Ave SW,Roanoke,VA,24014,37.244616,-79.952258
Fairview Elementary Roanoke City Public Schools,Fairview Elementary,Roanoke City Public Schools,648 Westwood Blvd NW,Roanoke,VA,24017,37.285663,-79.995955
Fallon Park Elementary Roanoke City Public Schools,Fallon Park Elementary,Roanoke City Public Schools,502 19th St SE,Roanoke,VA,24013,37.274874,-79.915772
Fishburn Park Elementary Roanoke City Public Schools,Fishburn Park Elementary,Roanoke City Public Schools,3057 Colonial Ave SW,Roanoke,VA,24015,37.248045,-79.972013
Garden City Elementary Roanoke City Public Schools,Garden City Elementary,Roanoke City Public Schools,3718 Garden City Blvd SE,Roanoke,VA,24014,37.227747,-79.93001
Highland Park Elementary Roanoke City Public Schools,Highland Park Elementary,Roanoke City Public Schools,1212 5th St SW,Roanoke,VA,24016,37.263025,-79.950625
Hurt Park Elementary Roanoke City Public Schools,Hurt Park Elementary,Roanoke City Public Schools,1525 Salem Ave SW,Roanoke,VA,24016,37.275651,-79.966194
Lincoln Terrace Elementary Roanoke City Public Schools,Lincoln Terrace Elementary,Roanoke City Public Schools,1802 Liberty Rd NW,Roanoke,VA,24012,37.288101,-79.94502
Morningside Elementary Roanoke City Public Schools,Morningside Elementary,Roanoke City Public Schools,"1716 Wilson Avenue, SE",Roanoke,VA,24013,37.260621,-79.921359
Preston Park Elementary Roanoke City Public Schools,Preston Park Elementary,Roanoke City Public Schools,"3142 Preston Avenue, NW",Roanoke,VA,24012,37.31248,-79.947397
Roanoke Academy For Mathematics & Science Elementary Roanoke City Public Schools,Roanoke Academy For Mathematics & Science Elementary,Roanoke City Public Schools,"1616 Nineteenth Street, NW",Roanoke,VA,24017,37.297919,-79.98776
Round Hill Elementary Roanoke City Public Schools,Round Hill Elementary,Roanoke City Public Schools,2020 Oakland Boulevard,Roanoke,VA,24012,37.296442,-79.955154
Virginia Heights Elementary Roanoke City Public Schools,Virginia Heights Elementary,Roanoke City Public Schools,1210 Amherst Ave SW,Roanoke,VA,24015,37.266354,-79.9769
Wasena Elementary Roanoke City Public Schools,Wasena Elementary,Roanoke City Public Schools,1125 Sherwood Ave SW,Roanoke,VA,24015,37.25846,-79.968229
Westside Elementary Roanoke City Public Schools,Westside Elementary,Roanoke City Public Schools,1441 Westside Blvd NW,Roanoke,VA,24017,37.301013,-79.995742
Fort Blackmore Primary Scott County Public Schools,Fort Blackmore Primary,Scott County Public Schools,214 Big Stoney Creek Road,Fort Blackmore,VA,24250,36.775335,-82.576785
Duffield-Pattonsville Primary Scott County Public Schools,Duffield-Pattonsville Primary,Scott County Public Schools,663 Duffield-Pattonsville Highway,Duffield,VA,24244,36.711382,-82.833676
Hilton Elementary Scott County Public Schools,Hilton Elementary,Scott County Public Schools,303 Academy Rd.,Highway 58,,,0,0
Shoemaker Elementary Scott County Public Schools,Shoemaker Elementary,Scott County Public Schools,218 Shoemaker Dr,Gate City,VA,24251,36.639834,-82.574776
Weber City Elementary Scott County Public Schools,Weber City Elementary,Scott County Public Schools,322 Jennings St,Weber City,VA,24290,36.622726,-82.554976
Yuma Elementary Scott County Public Schools,Yuma Elementary,Scott County Public Schools,130 Grover Cleveland Lane,Gate City,VA,24251,36.617367,-82.628969
Dungannon Elementary School Scott County Public Schools,Dungannon Elementary School,Scott County Public Schools,113 Fifth Avenue,Dungannon,VA,24245,36.831331,-82.466162
Rye Cove Intermediate Scott County Public Schools,Rye Cove Intermediate,Scott County Public Schools,158 Memorial School Lane,Clinchport,VA,24244,36.732194,-82.691399
Nickelsville Elementary Scott County Public Schools,Nickelsville Elementary,Scott County Public Schools,11415 Nickesville Hwy,Nickelsville,VA,24271,36.750254,-82.422287
Atkins Elementary Smyth County Public Schools,Atkins Elementary,Smyth County Public Schools,5903 Lee Hwy,Atkins,VA,24311,36.868044,-81.41926
Chilhowie Elementary Smyth County Public Schools,Chilhowie Elementary,Smyth County Public Schools,130 East Lee Hwy,Chiilhowie,VA,24319,36.798689,-81.681996
Marion Elementary Smyth County Public Schools,Marion Elementary,Smyth County Public Schools,188 Star Mountain Dr,Marion,VA,24354,36.840635,-81.500239
Oak Point Elementary Smyth County Public Schools,Oak Point Elementary,Smyth County Public Schools,138 OAK POINT DR,Marion,VA,24354,36.814481,-81.591589
Rich Valley Elementary Smyth County Public Schools,Rich Valley Elementary,Smyth County Public Schools,196 Long Hollow Rd,Saltville,VA,24370,36.928053,-81.626757
Saltville Elementary Smyth County Public Schools,Saltville Elementary,Smyth County Public Schools,1013 E Main St,Saltville,VA,24370,36.889123,-81.755228
Sugar Grove Elementary Smyth County Public Schools,Sugar Grove Elementary,Smyth County Public Schools,242 Teas Rd,Sugar Grove,VA,24375,36.773323,-81.416461
Booker T. Washington Elementary Suffolk City Public Schools,Booker T. Washington Elementary,Suffolk City Public Schools,204 Walnut Street,Suffolk,VA,23434,36.7224,-76.571592
Creekside Elementary Suffolk City Public Schools,Creekside Elementary,Suffolk City Public Schools,1000 Bennetts Creek Park Road,Suffolk,VA,23435,36.851243,-76.462887
Elephant's Fork Elementary Suffolk City Public Schools,Elephant's Fork Elementary,Suffolk City Public Schools,2316 William Reid Dr,Suffolk,VA,23434,36.766417,-76.58894
Florence Bowser Elementary Suffolk City Public Schools,Florence Bowser Elementary,Suffolk City Public Schools,4540 Nansemond Pkwy,Suffolk,VA,23435,36.824206,-76.491313
Hillpoint Elementary Suffolk City Public Schools,Hillpoint Elementary,Suffolk City Public Schools,1101 Hillpoint Rd,Suffolk,VA,23434,36.775264,-76.563296
Kilby Shores Elementary Suffolk City Public Schools,Kilby Shores Elementary,Suffolk City Public Schools,111 Kilby Shores Dr,Suffolk,VA,23434,36.724315,-76.629118
Mack Benn Jr. Elementary Suffolk City Public Schools,Mack Benn Jr. Elementary,Suffolk City Public Schools,1253 Nansemond Pkwy,Suffolk,VA,23434,36.754357,-76.539994
Nansemond Parkway Elementary Suffolk City Public Schools,Nansemond Parkway Elementary,Suffolk City Public Schools,3012 Nansemond Pkwy,Suffolk,VA,23434,36.795274,-76.524824
Northern Shores Elementary Suffolk City Public Schools,Northern Shores Elementary,Suffolk City Public Schools,6701 Respass Beach Rd,Suffolk,VA,23435,36.890747,-76.412821
Oakland Elementary Suffolk City Public Schools,Oakland Elementary,Suffolk City Public Schools,5505 Godwin Blvd,Suffolk,VA,23434,36.848424,-76.591307
Southwestern Elementary Suffolk City Public Schools,Southwestern Elementary,Suffolk City Public Schools,150 Pioneer Rd,Suffolk,VA,23437,36.689922,-76.742905
Jackson Memorial Elementary Wythe County Public Schools,Jackson Memorial Elementary,Wythe County Public Schools,4424 Fort Chiswell Road,Austinville,VA,24312,36.862661,-80.864649
Max Meadows Elementary Wythe County Public Schools,Max Meadows Elementary,Wythe County Public Schools,213 School St,Max Meadows,VA,24360,36.972985,-80.95106
Rural Retreat Elementary Wythe County Public Schools,Rural Retreat Elementary,Wythe County Public Schools,100 Martha Debord Way,Rural Retreat,VA,24386,36.90727,-81.264299
Sheffey Elementary Wythe County Public Schools,Sheffey Elementary,Wythe County Public Schools,621 Piney Mt. Rd,Wytheville,VA,24382,36.887426,-80.991779
Speedwell Elementary Wythe County Public Schools,Speedwell Elementary,Wythe County Public Schools,6820 Cedar Springs Rd,Speedwell,VA,24374,36.816448,-81.17588
Spiller Elementary Wythe County Public Schools,Spiller Elementary,Wythe County Public Schools,330 Tazewell St,Wytheville,VA,24382,36.952123,-81.084898
Edwin A. Gibson Elementary Danville City Public Schools,Edwin A. Gibson Elementary,Danville City Public Schools,1215 Industrial Avenue,Danville,VA,24541,36.570229,-79.401749
Forest Hills Elementary Danville City Public Schools,Forest Hills Elementary,Danville City Public Schools,155 Mountain View Ave,Danville,VA,24541,36.577905,-79.41501
G.L.H. Johnson Elementary Danville City Public Schools,G.L.H. Johnson Elementary,Danville City Public Schools,680 Arnett Blvd,Danville,VA,24540,36.616948,-79.397472
Park Avenue Elementary Danville City Public Schools,Park Avenue Elementary,Danville City Public Schools,661 Park Ave,Danville,VA,24541,36.582915,-79.438959
Schoolfield Elementary Danville City Public Schools,Schoolfield Elementary,Danville City Public Schools,1400 W Main St,Danville,VA,24541,36.568221,-79.435608
Woodberry Hills Elementary Danville City Public Schools,Woodberry Hills Elementary,Danville City Public Schools,614 Audubon Dr,Danville,VA,24540,36.604589,-79.405689
Baldwin Elementary Manassas City Public Schools,Baldwin Elementary,Manassas City Public Schools,1978 Eagle Way,Manassas,VA,20110,38.749087,-77.46877
George Carr Round Elementary Manassas City Public Schools,George Carr Round Elementary,Manassas City Public Schools,10100 Hastings Dr,Manassas,VA,20110,38.735017,-77.496884
Jennie Dean Elementary Manassas City Public Schools,Jennie Dean Elementary,Manassas City Public Schools,9601 Prince William St,Manassas,VA,20110,38.747288,-77.487527
Richard C. Haydon Elementary Manassas City Public Schools,Richard C. Haydon Elementary,Manassas City Public Schools,9075 Park Ave,Manassas,VA,20110,38.761561,-77.49119
Weems Elementary Manassas City Public Schools,Weems Elementary,Manassas City Public Schools,8750 Weems Rd,Manassas,VA,20110,38.766058,-77.467817
Baldwin Intermediate Manassas City Public Schools,Baldwin Intermediate,Manassas City Public Schools,1978 Eagle Way,Manassas,VA,20110,38.749087,-77.46877
Mayfield Intermediate Manassas City Public Schools,Mayfield Intermediate,Manassas City Public Schools,9400 Mayfield Court,Manassas,VA,20110,38.751426,-77.457554
Patrick Henry School Of Science And Arts Richmond City Public Schools,Patrick Henry School Of Science And Arts,Richmond City Public Schools,3411 Semmes Avenue,Richmond,VA,23225,37.516081,-77.46987
Barack Obama Elementary Richmond City Public Schools,Barack Obama Elementary,Richmond City Public Schools,3101 Fendall Ave,Richmond,VA,23222,37.573762,-77.435852
Bellevue Elementary Richmond City Public Schools,Bellevue Elementary,Richmond City Public Schools,2301 E Grace St,Richmond,VA,23223,37.531501,-77.421058
Blackwell Elementary Richmond City Public Schools,Blackwell Elementary,Richmond City Public Schools,1600 Everett St,Richmond,VA,23224,37.51635,-77.445036
Broad Rock Elementary Richmond City Public Schools,Broad Rock Elementary,Richmond City Public Schools,4615 Ferguson Ln,Richmond,VA,23234,37.47614,-77.477881
Cardinal Elementary Richmond City Public Schools,Cardinal Elementary,Richmond City Public Schools,1745 Catalina Dr,Richmond,VA,23224,37.490699,-77.47625
Chimborazo Elementary Richmond City Public Schools,Chimborazo Elementary,Richmond City Public Schools,3000 E Marshall St,Richmond,VA,23223,37.529841,-77.413125
Elizabeth D. Redd Elementary Richmond City Public Schools,Elizabeth D. Redd Elementary,Richmond City Public Schools,5601 Jahnke Rd,Richmond,VA,23225,37.516842,-77.502734
Fairfield Court Elementary Richmond City Public Schools,Fairfield Court Elementary,Richmond City Public Schools,2510 Phaup St,Richmond,VA,23223,37.549741,-77.401416
G.H. Reid Elementary Richmond City Public Schools,G.H. Reid Elementary,Richmond City Public Schools,1301 Whitehead Rd,Richmond,VA,23225,37.488786,-77.508998
George W. Carver Elementary Richmond City Public Schools,George W. Carver Elementary,Richmond City Public Schools,1110 W Leigh St,Richmond,VA,23220,37.554165,-77.448225
Ginter Park Elementary Richmond City Public Schools,Ginter Park Elementary,Richmond City Public Schools,3817 Chamberlayne Ave,Richmond,VA,23227,37.58756,-77.447402
Henry Marsh III Elementary Richmond City Public Schools,Henry Marsh III Elementary,Richmond City Public Schools,813 N 28th St,Richmond,VA,23223,37.534536,-77.412241
J.B. Fisher Elementary Richmond City Public Schools,J.B. Fisher Elementary,Richmond City Public Schools,3701 Garden Rd,Richmond,VA,23235,37.546338,-77.58311
J.L. Francis Elementary Richmond City Public Schools,J.L. Francis Elementary,Richmond City Public Schools,5146 Snead Rd,Richmond,VA,23224,37.476518,-77.489249
John B. Cary Elementary Richmond City Public Schools,John B. Cary Elementary,Richmond City Public Schools,3021 Maplewood Ave,Richmond,VA,23221,37.548521,-77.482289
Linwood Holton Elementary Richmond City Public Schools,Linwood Holton Elementary,Richmond City Public Schools,1600 W. Laburnum Ave,Richmond,VA,23227,37.585143,-77.461225
Mary Munford Elementary Richmond City Public Schools,Mary Munford Elementary,Richmond City Public Schools,211 Westmoreland Street,Richmond,VA,23226,37.564148,-77.499802
Miles Jones Elementary Richmond City Public Schools,Miles Jones Elementary,Richmond City Public Schools,200 Beaufont Hill Drive,Richmond,VA,23225,37.506128,-77.512994
Oak Grove/Bellemeade Elementary Richmond City Public Schools,Oak Grove/Bellemeade Elementary,Richmond City Public Schools,2409 Webber Avenue,Richmond,VA,23224,37.496352,-77.442253
Overby-Sheppard Elementary Richmond City Public Schools,Overby-Sheppard Elementary,Richmond City Public Schools,2300 1st Ave,Richmond,VA,23222,37.563855,-77.424215
Southampton Elementary Richmond City Public Schools,Southampton Elementary,Richmond City Public Schools,3333 Cheverly Rd,Richmond,VA,23225,37.544153,-77.534338
Swansboro Elementary Richmond City Public Schools,Swansboro Elementary,Richmond City Public Schools,3160 Midlothian Tnpk,Richmond,VA,23224,37.51128,-77.466527
Westover Hills Elementary Richmond City Public Schools,Westover Hills Elementary,Richmond City Public Schools,1211 Jahnke Rd,Richmond,VA,23225,37.521349,-77.49252
William Fox Elementary Richmond City Public Schools,William Fox Elementary,Richmond City Public Schools,2300 Hanover Ave,Richmond,VA,23220,37.554326,-77.468178
Woodville Elementary Richmond City Public Schools,Woodville Elementary,Richmond City Public Schools,2000 N 28th St,Richmond,VA,23223,37.545867,-77.401373
A.S. Rhodes Elementary Warren County Public Schools,A.S. Rhodes Elementary,Warren County Public Schools,224 W Strasburg Rd,Front Royal,VA,22630,38.948154,-78.206384
E. Wilson Morrison Elementary Warren County Public Schools,E. Wilson Morrison Elementary,Warren County Public Schools,40 Crescent St,Front Royal,VA,22630,38.919729,-78.192655
Hilda J. Barbour Elementary Warren County Public Schools,Hilda J. Barbour Elementary,Warren County Public Schools,290 Westminster Drive,Front Royal,VA,22630,38.920102,-78.168255
Leslie Fox Keyser Elementary Warren County Public Schools,Leslie Fox Keyser Elementary,Warren County Public Schools,1015 Stonewall Dr,Front Royal,VA,22630,38.919461,-78.175048
Ressie Jeffries Elementary Warren County Public Schools,Ressie Jeffries Elementary,Warren County Public Schools,320 East Criser Road,Front Royal,VA,22630,38.907357,-78.19033
Amelon Elementary Amherst County Public Schools,Amelon Elementary,Amherst County Public Schools,132 Amer Court,Madison Heights,VA,24572,37.469768,-79.119363
Amherst Elementary Amherst County Public Schools,Amherst Elementary,Amherst County Public Schools,156 Davis St,Amherst,VA,24521,37.587475,-79.045346
Central Elementary Amherst County Public Schools,Central Elementary,Amherst County Public Schools,575 Union Hill Rd,Amherst,VA,24521,37.569313,-79.036075
Elon Elementary Amherst County Public Schools,Elon Elementary,Amherst County Public Schools,147 Younger Dr,Madison Heights,VA,24572,37.513617,-79.195647
Madison Heights Elementary Amherst County Public Schools,Madison Heights Elementary,Amherst County Public Schools,287 Learning Lane,Madison Heights,VA,24572,37.431994,-79.133735
Temperance Elementary Amherst County Public Schools,Temperance Elementary,Amherst County Public Schools,1981 Lowesville Rd,Amherst,VA,24521,37.693073,-79.081728
Cassell Elementary Augusta County Public Schools,Cassell Elementary,Augusta County Public Schools,1301 Rockfish Rd,Waynesboro,VA,22980,38.130509,-78.869894
Churchville Elementary Augusta County Public Schools,Churchville Elementary,Augusta County Public Schools,3710 Churchville Ave,Churchville,VA,24421,38.222554,-79.159973
Craigsville Elementary Augusta County Public Schools,Craigsville Elementary,Augusta County Public Schools,100 East First St,Craigsville,VA,24430,38.082067,-79.380668
Edward G. Clymore Elementary Augusta County Public Schools,Edward G. Clymore Elementary,Augusta County Public Schools,184 Fort Defiance Rd,Fort Defiance,VA,24437,38.246217,-78.976452
Guy K. Stump Elementary Augusta County Public Schools,Guy K. Stump Elementary,Augusta County Public Schools,115 Draft Ave,Stuarts Draft,VA,24477,38.030094,-79.035289
North River Elementary Augusta County Public Schools,North River Elementary,Augusta County Public Schools,3395 Scenic Hwy,Mount Solon,VA,22843,38.31479,-79.07919
Riverheads Elementary Augusta County Public Schools,Riverheads Elementary,Augusta County Public Schools,239 Don Hanger Circle,Staunton,VA,24401,38.032657,-79.143242
Stuarts Draft Elementary Augusta County Public Schools,Stuarts Draft Elementary,Augusta County Public Schools,63 School Blvd,Stuarts Draft,VA,24477,38.047385,-79.007871
Wilson Elementary Augusta County Public Schools,Wilson Elementary,Augusta County Public Schools,127 Woodrow Wilson Ave,Fishersville,VA,22939,38.114221,-78.990425
Bedford Elementary Bedford County Public Schools,Bedford Elementary,Bedford County Public Schools,806 Tiger Trail Road,Bedford,VA,24523,37.326493,-79.535814
Big Island Elementary Bedford County Public Schools,Big Island Elementary,Bedford County Public Schools,1114 Schooldays Rd,Big Island,VA,24526,37.531364,-79.416065
Boonsboro Elementary Bedford County Public Schools,Boonsboro Elementary,Bedford County Public Schools,1234 Eagle Circle,Lynchburg,VA,24503,37.4529,-79.260816
Forest Elementary Bedford County Public Schools,Forest Elementary,Bedford County Public Schools,One Scholar Lane,Forest,VA,24551,37.375713,-79.307908
Goodview Elementary Bedford County Public Schools,Goodview Elementary,Bedford County Public Schools,1374 Rivermont Academy Rd,Goodview,VA,24095,37.262714,-79.780721
Huddleston Elementary Bedford County Public Schools,Huddleston Elementary,Bedford County Public Schools,1027 Huddleston Drive,Huddleston,VA,24104,37.163449,-79.471787
Moneta Elementary Bedford County Public Schools,Moneta Elementary,Bedford County Public Schools,12718 Moneta Rd,Moneta,VA,24121,37.182401,-79.615698
Montvale Elementary Bedford County Public Schools,Montvale Elementary,Bedford County Public Schools,One Little Patriot Dr,Montvale,VA,24122,37.375937,-79.708451
New London Academy Elementary Bedford County Public Schools,New London Academy Elementary,Bedford County Public Schools,12400 E Lynchburg-Salem Trnpk,Forest,VA,24551,37.306149,-79.30787
Otter River Elementary Bedford County Public Schools,Otter River Elementary,Bedford County Public Schools,1044 Otter River Dr,Goode,VA,24556,37.365025,-79.433688
Stewartsville Elementary Bedford County Public Schools,Stewartsville Elementary,Bedford County Public Schools,1138 Wildcat Rd,Goodview,VA,24095,37.271892,-79.789615
Thomas Jefferson Elementary Bedford County Public Schools,Thomas Jefferson Elementary,Bedford County Public Schools,1255 Patriot Place,Forest,VA,24551,37.356828,-79.288139
Fancy Gap Elementary Carroll County Public Schools,Fancy Gap Elementary,Carroll County Public Schools,63 Winding Ridge Rd,Fancy Gap,VA,24328,36.68987,-80.69762
Gladesboro Elementary Carroll County Public Schools,Gladesboro Elementary,Carroll County Public Schools,7845 Snake Creek,Hillsville,VA,24343,36.687182,-80.610033
Gladeville Elementary Carroll County Public Schools,Gladeville Elementary,Carroll County Public Schools,3117 Glendale Rd,Galax,VA,24333,36.699614,-80.878374
Hillsville Elementary Carroll County Public Schools,Hillsville Elementary,Carroll County Public Schools,90 Patriot Lane,Hillsville,VA,24343,36.788094,-80.694252
Laurel Elementary Carroll County Public Schools,Laurel Elementary,Carroll County Public Schools,26 Pleasant View Road,Austinville,VA,24312,36.796772,-80.851286
Oakland Elementary Carroll County Public Schools,Oakland Elementary,Carroll County Public Schools,4930 Pipers Gap Road,Galax,VA,24333,36.642633,-80.837588
St. Paul Carroll County Public Schools,St. Paul,Carroll County Public Schools,231 Flower Gap Road,Cana,VA,24317,36.604249,-80.689575
Kings Park Elementary Fairfax County Public Schools,Kings Park Elementary,Fairfax County Public Schools,5400 Harrow Way,Springfield,VA,22151,38.804894,-77.241667
Bailey's Upper Elementary School for the Arts and Sciences Fairfax County Public Schools,Bailey's Upper Elementary School for the Arts and Sciences,Fairfax County Public Schools,6245 Leesburg Pike,Falls Church,VA,22044,38.868554,-77.153551
Annandale Terrace Elementary Fairfax County Public Schools,Annandale Terrace Elementary,Fairfax County Public Schools,7604 Herald St,Annandale,VA,22003,38.827288,-77.208096
Beech Tree Elementary Fairfax County Public Schools,Beech Tree Elementary,Fairfax County Public Schools,3401 Beechtree Ln,Falls Church,VA,22042,38.852963,-77.181194
Belvedere Elementary Fairfax County Public Schools,Belvedere Elementary,Fairfax County Public Schools,6540 Columbia Pike,Falls Church,VA,22041,38.838559,-77.168671
Braddock Elementary Fairfax County Public Schools,Braddock Elementary,Fairfax County Public Schools,7825 Heritage Dr,Annandale,VA,22003,38.82247,-77.215531
Bren Mar Park Elementary Fairfax County Public Schools,Bren Mar Park Elementary,Fairfax County Public Schools,6344 Beryl Rd,Alexandria,VA,22312,38.801775,-77.157499
Columbia Elementary Fairfax County Public Schools,Columbia Elementary,Fairfax County Public Schools,6720 Alpine Dr,Annandale,VA,22003,38.829102,-77.176641
Glen Forest Elementary Fairfax County Public Schools,Glen Forest Elementary,Fairfax County Public Schools,5829 Glen Forest Dr,Falls Church,VA,22041,38.856176,-77.12864
Mason Crest Elementary Fairfax County Public Schools,Mason Crest Elementary,Fairfax County Public Schools,3705 Crest Dr,Annandale,VA,22003,38.84269,-77.196794
North Springfield Elementary Fairfax County Public Schools,North Springfield Elementary,Fairfax County Public Schools,7602 Heming Court,Springfield,VA,22151,38.801149,-77.207201
Parklawn Elementary Fairfax County Public Schools,Parklawn Elementary,Fairfax County Public Schools,4116 Braddock Rd,Alexandria,VA,22312,38.834188,-77.152789
Sleepy Hollow Elementary Fairfax County Public Schools,Sleepy Hollow Elementary,Fairfax County Public Schools,3333 Sleepy Hollow Rd,Falls Church,VA,22044,38.855694,-77.168719
Weyanoke Elementary Fairfax County Public Schools,Weyanoke Elementary,Fairfax County Public Schools,6520 Braddock Rd,Alexandria,VA,22312,38.819464,-77.165235
Fort Belvoir Upper Elementary Fairfax County Public Schools,Fort Belvoir Upper Elementary,Fairfax County Public Schools,5970 Meeres Road,Fort Belvoir,VA,22060,38.722176,-77.142095
McNair Upper Elementary Fairfax County Public Schools,McNair Upper Elementary,Fairfax County Public Schools,2410 Fox Mill Road,Herndon,VA,20171,38.947575,-77.402781
Kings Glen Elementary Fairfax County Public Schools,Kings Glen Elementary,Fairfax County Public Schools,5401 Danbury Forest Dr,Springfield,VA,22151,38.803753,-77.234647
Aldrin Elementary Fairfax County Public Schools,Aldrin Elementary,Fairfax County Public Schools,11375 Center Harbor Rd,Reston,VA,20194,38.979744,-77.337969
Archer Elementary Fairfax County Public Schools,Archer Elementary,Fairfax County Public Schools,324 Nutley St NW,Vienna,VA,22180,38.898902,-77.277626
Armstrong Elementary Fairfax County Public Schools,Armstrong Elementary,Fairfax County Public Schools,11900 Lake Newport Rd,Reston,VA,20194,38.980093,-77.35854
Belle View Elementary Fairfax County Public Schools,Belle View Elementary,Fairfax County Public Schools,6701 Fort Hunt Rd,Alexandria,VA,22307,38.771817,-77.061056
Bonnie Brae Elementary Fairfax County Public Schools,Bonnie Brae Elementary,Fairfax County Public Schools,5420 Sideburn Rd,Fairfax,VA,22032,38.80399,-77.310094
Brookfield Elementary Fairfax County Public Schools,Brookfield Elementary,Fairfax County Public Schools,4200 Lees Corner Rd,Chantilly,VA,20151,38.882196,-77.419319
Bucknell Elementary Fairfax County Public Schools,Bucknell Elementary,Fairfax County Public Schools,6925 University Dr,Alexandria,VA,22307,38.766778,-77.074347
Bull Run Elementary Fairfax County Public Schools,Bull Run Elementary,Fairfax County Public Schools,15301 Lee Hwy,Centreville,VA,20121,38.828664,-77.475701
Bush Hill Elementary Fairfax County Public Schools,Bush Hill Elementary,Fairfax County Public Schools,5927 Westchester St,Alexandria,VA,22310,38.790053,-77.12415
Camelot Elementary Fairfax County Public Schools,Camelot Elementary,Fairfax County Public Schools,8100 Guinevere Dr,Annandale,VA,22003,38.848599,-77.225318
Cameron Elementary Fairfax County Public Schools,Cameron Elementary,Fairfax County Public Schools,3434 Campbell Dr,Alexandria,VA,22303,38.800417,-77.091131
Canterbury Woods Elementary Fairfax County Public Schools,Canterbury Woods Elementary,Fairfax County Public Schools,4910 Willet Dr,Annandale,VA,22003,38.820412,-77.249449
Cardinal Forest Elementary Fairfax County Public Schools,Cardinal Forest Elementary,Fairfax County Public Schools,8600 Forrester Blvd,Springfield,VA,22152,38.791986,-77.240219
Centre Ridge Elementary Fairfax County Public Schools,Centre Ridge Elementary,Fairfax County Public Schools,14400 New Braddock Rd,Centreville,VA,20121,38.825595,-77.445469
Centreville Elementary Fairfax County Public Schools,Centreville Elementary,Fairfax County Public Schools,14330 Green Trails Blvd,Centreville,VA,20121,38.819623,-77.440611
Cherry Run Elementary Fairfax County Public Schools,Cherry Run Elementary,Fairfax County Public Schools,9732 Ironmaster Dr,Burke,VA,22015,38.76815,-77.284471
Chesterbrook Elementary Fairfax County Public Schools,Chesterbrook Elementary,Fairfax County Public Schools,1753 Kirby Rd,McLean,VA,22101,38.918868,-77.155368
Churchill Road Elementary Fairfax County Public Schools,Churchill Road Elementary,Fairfax County Public Schools,7100 Churchill Rd,McLean,VA,22101,38.946448,-77.189421
Clearview Elementary Fairfax County Public Schools,Clearview Elementary,Fairfax County Public Schools,12635 Builders Rd,Herndon,VA,20170,38.983428,-77.39102
Clermont Elementary Fairfax County Public Schools,Clermont Elementary,Fairfax County Public Schools,5720 Clermont Dr,Alexandria,VA,22310,38.794881,-77.110751
Coates Elementary Fairfax County Public Schools,Coates Elementary,Fairfax County Public Schools,2480 River Birch Rd.,Herndon,VA,20171,38.952002,-77.418792
Colvin Run Elementary Fairfax County Public Schools,Colvin Run Elementary,Fairfax County Public Schools,1400 Trap Rd.,Vienna,VA,22182,38.946727,-77.264502
Crestwood Elementary Fairfax County Public Schools,Crestwood Elementary,Fairfax County Public Schools,6010 Hanover Ave,Springfield,VA,22150,38.787171,-77.194491
Crossfield Elementary Fairfax County Public Schools,Crossfield Elementary,Fairfax County Public Schools,2791 Fox Mill Rd,Herndon,VA,20171,38.915014,-77.362144
Cub Run Elementary Fairfax County Public Schools,Cub Run Elementary,Fairfax County Public Schools,5301 Sully Station Dr,Centreville,VA,20120,38.865746,-77.458638
Cunningham Park Elementary Fairfax County Public Schools,Cunningham Park Elementary,Fairfax County Public Schools,1001 Park St SE,Vienna,VA,22180,38.892243,-77.249972
Daniels Run Elementary Fairfax County Public Schools,Daniels Run Elementary,Fairfax County Public Schools,3705 Blenheim Boulevard,Fairfax,VA,22030,38.852237,-77.296032
Deer Park Elementary Fairfax County Public Schools,Deer Park Elementary,Fairfax County Public Schools,15109 Carlbern Dr,Centreville,VA,20120,38.855792,-77.470936
Dogwood Elementary Fairfax County Public Schools,Dogwood Elementary,Fairfax County Public Schools,12300 Glade Dr,Reston,VA,20191,38.94265,-77.370928
Dranesville Elementary Fairfax County Public Schools,Dranesville Elementary,Fairfax County Public Schools,1515 Powells Tavern Pl,Herndon,VA,20170,38.996446,-77.387102
Eagle View Elementary Fairfax County Public Schools,Eagle View Elementary,Fairfax County Public Schools,4500 Dixie Hill Road,Fairfax,VA,22030,38.851349,-77.362758
Fairfax Villa Elementary Fairfax County Public Schools,Fairfax Villa Elementary,Fairfax County Public Schools,10900 Santa Clara Dr,Fairfax,VA,22030,38.840041,-77.323318
Fairhill Elementary Fairfax County Public Schools,Fairhill Elementary,Fairfax County Public Schools,3001 Chichester Ln,Fairfax,VA,22031,38.869585,-77.248038
Fairview Elementary Fairfax County Public Schools,Fairview Elementary,Fairfax County Public Schools,5815 Ox Rd,Fairfax Station,VA,22039,38.797888,-77.324211
Flint Hill Elementary Fairfax County Public Schools,Flint Hill Elementary,Fairfax County Public Schools,2444 Flint Hill Rd,Vienna,VA,22181,38.896134,-77.285133
Floris Elementary Fairfax County Public Schools,Floris Elementary,Fairfax County Public Schools,2708 Centreville Rd,Herndon,VA,20171,38.935855,-77.414957
Forest Edge Elementary Fairfax County Public Schools,Forest Edge Elementary,Fairfax County Public Schools,1501 Beacontree Ln,Reston,VA,20190,38.968709,-77.329548
Forestdale Elementary Fairfax County Public Schools,Forestdale Elementary,Fairfax County Public Schools,6530 Elder Ave,Springfield,VA,22150,38.776414,-77.169693
Forestville Elementary Fairfax County Public Schools,Forestville Elementary,Fairfax County Public Schools,1085 Utterback Store Rd,Great Falls,VA,22066,38.993298,-77.328291
Fort Hunt Elementary Fairfax County Public Schools,Fort Hunt Elementary,Fairfax County Public Schools,8832 Linton Ln,Alexandria,VA,22308,38.719164,-77.066385
Fox Mill Elementary Fairfax County Public Schools,Fox Mill Elementary,Fairfax County Public Schools,2611 Viking Dr,Herndon,VA,20171,38.928034,-77.382186
Franconia Elementary Fairfax County Public Schools,Franconia Elementary,Fairfax County Public Schools,6301 Beulah St,Alexandria,VA,22310,38.781352,-77.145268
Freedom Hill Elementary Fairfax County Public Schools,Freedom Hill Elementary,Fairfax County Public Schools,1945 Lord Fairfax Rd,Vienna,VA,22182,38.911272,-77.229676
Garfield Elementary Fairfax County Public Schools,Garfield Elementary,Fairfax County Public Schools,7101 Old Keene Mill Rd,Springfield,VA,22150,38.778167,-77.189647
Graham Road Elementary Fairfax County Public Schools,Graham Road Elementary,Fairfax County Public Schools,2831 Graham Rd,Falls Church,VA,22042,38.876316,-77.190912
Great Falls Elementary Fairfax County Public Schools,Great Falls Elementary,Fairfax County Public Schools,701 Walker Rd,Great Falls,VA,22066,39.001469,-77.291853
Greenbriar East Elementary Fairfax County Public Schools,Greenbriar East Elementary,Fairfax County Public Schools,13006 Point Pleasant Dr,Fairfax,VA,22033,38.871419,-77.39439
Greenbriar West Elementary Fairfax County Public Schools,Greenbriar West Elementary,Fairfax County Public Schools,13300 Poplar Tree Rd,Fairfax,VA,22033,38.876325,-77.405693
Groveton Elementary Fairfax County Public Schools,Groveton Elementary,Fairfax County Public Schools,6900 Harrison Ln,Alexandria,VA,22306,38.768826,-77.095008
Gunston Elementary Fairfax County Public Schools,Gunston Elementary,Fairfax County Public Schools,10100 Gunston Rd,Lorton,VA,22079,38.68485,-77.20963
Halley Elementary Fairfax County Public Schools,Halley Elementary,Fairfax County Public Schools,8850 Cross Chase Circle,Fairfax Station,VA,22039,38.717932,-77.259967
Haycock Elementary Fairfax County Public Schools,Haycock Elementary,Fairfax County Public Schools,6616 Haycock Rd,Falls Church,VA,22043,38.903873,-77.173541
Hayfield Elementary Fairfax County Public Schools,Hayfield Elementary,Fairfax County Public Schools,7633 Telegraph Rd,Alexandria,VA,22315,38.749151,-77.140468
Herndon Elementary Fairfax County Public Schools,Herndon Elementary,Fairfax County Public Schools,630 Dranesville Rd,Herndon,VA,20170,38.975944,-77.377089
Hollin Meadows Elementary Fairfax County Public Schools,Hollin Meadows Elementary,Fairfax County Public Schools,2310 Nordok Place,Alexandria,VA,22306,38.750031,-77.071382
Hunt Valley Elementary Fairfax County Public Schools,Hunt Valley Elementary,Fairfax County Public Schools,7107 Sydenstricker Rd,Springfield,VA,22152,38.762069,-77.243961
Hunters Woods Elementary School for the Arts and Sciences Fairfax County Public Schools,Hunters Woods Elementary School for the Arts and Sciences,Fairfax County Public Schools,2401 Colts Neck Rd,Reston,VA,20191,38.932335,-77.361575
Hutchison Elementary Fairfax County Public Schools,Hutchison Elementary,Fairfax County Public Schools,13209 Parcher Ave,Herndon,VA,20170,38.961527,-77.406819
Hybla Valley Elementary Fairfax County Public Schools,Hybla Valley Elementary,Fairfax County Public Schools,3415 Lockheed Blvd,Alexandria,VA,22306,38.759093,-77.089259
Island Creek Elementary Fairfax County Public Schools,Island Creek Elementary,Fairfax County Public Schools,7855 Morning View Ln,Alexandria,VA,22315,38.745472,-77.168386
Keene Mill Elementary Fairfax County Public Schools,Keene Mill Elementary,Fairfax County Public Schools,6310 Bardu Ave,Springfield,VA,22152,38.781303,-77.22115
Kent Gardens Elementary Fairfax County Public Schools,Kent Gardens Elementary,Fairfax County Public Schools,1717 Melbourne Dr,McLean,VA,22101,38.921407,-77.175581
Lake Anne Elementary Fairfax County Public Schools,Lake Anne Elementary,Fairfax County Public Schools,11510 North Shore Dr,Reston,VA,20190,38.965287,-77.346782
Lane Elementary Fairfax County Public Schools,Lane Elementary,Fairfax County Public Schools,7137 Beulah St,Alexandria,VA,22315,38.761331,-77.15785
Laurel Hill Elementary Fairfax County Public Schools,Laurel Hill Elementary,Fairfax County Public Schools,8390 Laurel Crest Dr.,Lorton,VA,22079,38.717586,-77.233327
Laurel Ridge Elementary Fairfax County Public Schools,Laurel Ridge Elementary,Fairfax County Public Schools,10110 Commonwealth Blvd,Fairfax,VA,22032,38.814351,-77.295739
Lees Corner Elementary Fairfax County Public Schools,Lees Corner Elementary,Fairfax County Public Schools,13500 Hollinger Ave,Fairfax,VA,22033,38.890455,-77.411085
Lemon Road Elementary Fairfax County Public Schools,Lemon Road Elementary,Fairfax County Public Schools,7230 Idylwood Rd,Falls Church,VA,22043,38.903816,-77.195192
Little Run Elementary Fairfax County Public Schools,Little Run Elementary,Fairfax County Public Schools,4511 Olley Ln,Fairfax,VA,22032,38.826346,-77.266975
London Towne Elementary Fairfax County Public Schools,London Towne Elementary,Fairfax County Public Schools,6100 Stone Rd,Centreville,VA,20120,38.839658,-77.45626
Lorton Station Elementary Fairfax County Public Schools,Lorton Station Elementary,Fairfax County Public Schools,9298 Lewis Chapel Rd.,Lorton,VA,22079,38.706572,-77.218491
Lynbrook Elementary Fairfax County Public Schools,Lynbrook Elementary,Fairfax County Public Schools,5801 Backlick Rd,Springfield,VA,22150,38.792052,-77.186226
Mantua Elementary Fairfax County Public Schools,Mantua Elementary,Fairfax County Public Schools,9107 Horner Court,Fairfax,VA,22031,38.847379,-77.259285
Marshall Road Elementary Fairfax County Public Schools,Marshall Road Elementary,Fairfax County Public Schools,730 Marshall Rd SW,Vienna,VA,22180,38.88224,-77.266476
Mosaic Elementary Fairfax County Public Schools,Mosaic Elementary,Fairfax County Public Schools,9819 Five Oaks Rd,Fairfax,VA,22031,38.869897,-77.285949
Mount Eagle Elementary Fairfax County Public Schools,Mount Eagle Elementary,Fairfax County Public Schools,6116 N Kings Hwy,Alexandria,VA,22303,38.785113,-77.078501
Mount Vernon Woods Elementary Fairfax County Public Schools,Mount Vernon Woods Elementary,Fairfax County Public Schools,4015 Fielding St,Alexandria,VA,22309,38.742932,-77.100033
Navy Elementary Fairfax County Public Schools,Navy Elementary,Fairfax County Public Schools,3500 W Ox Rd,Fairfax,VA,22033,38.88922,-77.378852
Newington Forest Elementary Fairfax County Public Schools,Newington Forest Elementary,Fairfax County Public Schools,8001 Newington Forest Ave,Springfield,VA,22153,38.739219,-77.24032
Oak Hill Elementary Fairfax County Public Schools,Oak Hill Elementary,Fairfax County Public Schools,3210 Kinross Circle,Herndon,VA,20171,38.913119,-77.408897
Oak View Elementary Fairfax County Public Schools,Oak View Elementary,Fairfax County Public Schools,5004 Sideburn Rd,Fairfax,VA,22032,38.81884,-77.309891
Oakton Elementary Fairfax County Public Schools,Oakton Elementary,Fairfax County Public Schools,3000 Chain Bridge Rd,Oakton,VA,22124,38.879847,-77.304101
Olde Creek Elementary Fairfax County Public Schools,Olde Creek Elementary,Fairfax County Public Schools,9524 Old Creek Dr,Fairfax,VA,22032,38.831152,-77.276575
Orange Hunt Elementary Fairfax County Public Schools,Orange Hunt Elementary,Fairfax County Public Schools,6820 Sydenstricker Rd,Springfield,VA,22152,38.766196,-77.25573
Pine Spring Elementary Fairfax County Public Schools,Pine Spring Elementary,Fairfax County Public Schools,7607 Willow Ln,Falls Church,VA,22042,38.870446,-77.209029
Poplar Tree Elementary Fairfax County Public Schools,Poplar Tree Elementary,Fairfax County Public Schools,13440 Melville Ln,Chantilly,VA,20151,38.86278,-77.414757
Powell Elementary Fairfax County Public Schools,Powell Elementary,Fairfax County Public Schools,13340 Leland Rd.,Centreville,VA,20120,38.846335,-77.407412
Providence Elementary Fairfax County Public Schools,Providence Elementary,Fairfax County Public Schools,3616 Jermantown Rd,Fairfax,VA,22030,38.863959,-77.325386
Ravensworth Elementary Fairfax County Public Schools,Ravensworth Elementary,Fairfax County Public Schools,5411 Nutting Dr,Springfield,VA,22151,38.802838,-77.2235
Riverside Elementary Fairfax County Public Schools,Riverside Elementary,Fairfax County Public Schools,8410 Old Mount Vernon Rd,Alexandria,VA,22309,38.729699,-77.094375
Rolling Valley Elementary Fairfax County Public Schools,Rolling Valley Elementary,Fairfax County Public Schools,6703 Barnack Dr,Springfield,VA,22152,38.768755,-77.230984
Rose Hill Elementary Fairfax County Public Schools,Rose Hill Elementary,Fairfax County Public Schools,6301 Rose Hill Dr,Alexandria,VA,22310,38.78183,-77.117707
Sangster Elementary Fairfax County Public Schools,Sangster Elementary,Fairfax County Public Schools,7420 Reservation Dr,Springfield,VA,22153,38.755195,-77.272129
Saratoga Elementary Fairfax County Public Schools,Saratoga Elementary,Fairfax County Public Schools,8111 Northumberland Rd,Springfield,VA,22153,38.735615,-77.21394
Sherman Elementary Fairfax County Public Schools,Sherman Elementary,Fairfax County Public Schools,6633 Brawner St,McLean,VA,22101,38.935068,-77.174667
Shrevewood Elementary Fairfax County Public Schools,Shrevewood Elementary,Fairfax County Public Schools,7525 Shreve Rd,Falls Church,VA,22043,38.888658,-77.205707
Silverbrook Elementary Fairfax County Public Schools,Silverbrook Elementary,Fairfax County Public Schools,9350 Crosspointe Dr,Fairfax Station,VA,22039,38.728958,-77.269392
Spring Hill Elementary Fairfax County Public Schools,Spring Hill Elementary,Fairfax County Public Schools,8201 Lewinsville Rd,McLean,VA,22102,38.939013,-77.228435
Springfield Estates Elementary Fairfax County Public Schools,Springfield Estates Elementary,Fairfax County Public Schools,6200 Charles Goff Dr,Springfield,VA,22150,38.783577,-77.16376
Stenwood Elementary Fairfax County Public Schools,Stenwood Elementary,Fairfax County Public Schools,2620 Gallows Rd,Vienna,VA,22180,38.884502,-77.22945
Stratford Landing Elementary Fairfax County Public Schools,Stratford Landing Elementary,Fairfax County Public Schools,8484 Riverside Rd,Alexandria,VA,22308,38.728106,-77.068837
Sunrise Valley Elementary Fairfax County Public Schools,Sunrise Valley Elementary,Fairfax County Public Schools,10824 Cross School Rd,Reston,VA,20191,38.940214,-77.320228
Terra Centre Elementary Fairfax County Public Schools,Terra Centre Elementary,Fairfax County Public Schools,6000 Burke Centre Pkwy,Burke,VA,22015,38.785387,-77.29776
Terraset Elementary Fairfax County Public Schools,Terraset Elementary,Fairfax County Public Schools,11411 Ridge Heights Rd,Reston,VA,20191,38.936039,-77.343166
Timber Lane Elementary Fairfax County Public Schools,Timber Lane Elementary,Fairfax County Public Schools,2737 West St,Falls Church,VA,22046,38.879866,-77.197789
Union Mill Elementary Fairfax County Public Schools,Union Mill Elementary,Fairfax County Public Schools,13611 Springstone Dr,Clifton,VA,20124,38.820553,-77.417469
Vienna Elementary Fairfax County Public Schools,Vienna Elementary,Fairfax County Public Schools,128 Center St S,Vienna,VA,22180,38.901131,-77.263797
Virginia Run Elementary Fairfax County Public Schools,Virginia Run Elementary,Fairfax County Public Schools,15450 Martins Hundred Dr,Centreville,VA,20120,38.852179,-77.485896
Wakefield Forest Elementary Fairfax County Public Schools,Wakefield Forest Elementary,Fairfax County Public Schools,4011 Iva Ln,Fairfax,VA,22032,38.836096,-77.246596
Waples Mill Elementary Fairfax County Public Schools,Waples Mill Elementary,Fairfax County Public Schools,11509 Waples Mill Rd,Oakton,VA,22124,38.876338,-77.344749
Washington Mill Elementary Fairfax County Public Schools,Washington Mill Elementary,Fairfax County Public Schools,9100 Cherrytree Dr,Alexandria,VA,22309,38.71014,-77.104248
Waynewood Elementary Fairfax County Public Schools,Waynewood Elementary,Fairfax County Public Schools,1205 Waynewood Blvd,Alexandria,VA,22308,38.725188,-77.056351
West Springfield Elementary Fairfax County Public Schools,West Springfield Elementary,Fairfax County Public Schools,6802 Deland Dr,Springfield,VA,22152,38.769105,-77.219183
Westbriar Elementary Fairfax County Public Schools,Westbriar Elementary,Fairfax County Public Schools,1741 Pine Valley Dr,Vienna,VA,22182,38.921105,-77.245486
Westgate Elementary Fairfax County Public Schools,Westgate Elementary,Fairfax County Public Schools,7500 Magarity Rd,Falls Church,VA,22043,38.919363,-77.205234
Westlawn Elementary Fairfax County Public Schools,Westlawn Elementary,Fairfax County Public Schools,3200 Westley Rd,Falls Church,VA,22042,38.862895,-77.18364
White Oaks Elementary Fairfax County Public Schools,White Oaks Elementary,Fairfax County Public Schools,6130 Shiplett Blvd,Burke,VA,22015,38.783424,-77.270338
Willow Springs Elementary Fairfax County Public Schools,Willow Springs Elementary,Fairfax County Public Schools,5400 Willow Springs School Rd,Fairfax,VA,22030,38.831737,-77.379907
Wolftrap Elementary Fairfax County Public Schools,Wolftrap Elementary,Fairfax County Public Schools,1903 Beulah Rd,Vienna,VA,22182,38.917611,-77.266779
Woodburn Elementary Fairfax County Public Schools,Woodburn Elementary,Fairfax County Public Schools,3401 Hemlock Dr,Falls Church,VA,22042,38.852335,-77.213812
Woodlawn Elementary Fairfax County Public Schools,Woodlawn Elementary,Fairfax County Public Schools,8505 Highland Ln,Alexandria,VA,22309,38.726094,-77.118479
Woodley Hills Elementary Fairfax County Public Schools,Woodley Hills Elementary,Fairfax County Public Schools,8718 Old Mt Vernon Rd,Alexandria,VA,22309,38.722475,-77.136201
Clays Mill Elementary Halifax County Public Schools,Clays Mill Elementary,Halifax County Public Schools,1011 Clays Mill School Dr,Scottsburg,VA,24589,36.830342,-78.872619
Cluster Springs Elementary Halifax County Public Schools,Cluster Springs Elementary,Halifax County Public Schools,7091 Huell Matthews Hwy.,Alton,VA,24520,36.609569,-78.915767
Meadville Elementary Halifax County Public Schools,Meadville Elementary,Halifax County Public Schools,1011 Meadville School Loop,Nathalie,VA,24577,36.836701,-79.043288
Scottsburg Elementary Halifax County Public Schools,Scottsburg Elementary,Halifax County Public Schools,1010 Scottsburg School Trail,Scottsburg,VA,24589,36.779165,-78.811657
Sinai Elementary Halifax County Public Schools,Sinai Elementary,Halifax County Public Schools,1011 Sinai Elementary Drive,Halifax,VA,24558,36.753868,-78.95944
South Boston Elementary Halifax County Public Schools,South Boston Elementary,Halifax County Public Schools,2320 Parker Avenue,South Boston,VA,24592,36.71914,-78.889781
Sydnor Jennings Elementary Halifax County Public Schools,Sydnor Jennings Elementary,Halifax County Public Schools,1011 Sydnor Jennings Rd,Nathalie,VA,24577,36.924802,-79.014151
John M. Gandy Elementary Hanover County Public Schools,John M. Gandy Elementary,Hanover County Public Schools,201 Archie Cannon Drive,Ashland,VA,23005,37.77032,-77.474656
Battlefield Park Elementary Hanover County Public Schools,Battlefield Park Elementary,Hanover County Public Schools,5501 Mechanicsville Turnpike,Mechanicsville,VA,23111,37.626141,-77.296463
Beaverdam Elementary Hanover County Public Schools,Beaverdam Elementary,Hanover County Public Schools,15485 Beaverdam School Road,Beaverdam,VA,23015,37.933275,-77.642262
Cold Harbor Elementary Hanover County Public Schools,Cold Harbor Elementary,Hanover County Public Schools,6740 Cold Harbor Road,Mechanicsville,VA,23111,37.593192,-77.319797
Cool Spring Elementary Hanover County Public Schools,Cool Spring Elementary,Hanover County Public Schools,9964 Honey Meadows Rd,Mechanicsville,VA,23116,37.670018,-77.411727
Elmont Elementary Hanover County Public Schools,Elmont Elementary,Hanover County Public Schools,12007 Cedar Lane,Ashland,VA,23005,37.714359,-77.5078
Kersey Creek Elementary Hanover County Public Schools,Kersey Creek Elementary,Hanover County Public Schools,10004 Learning Lane,Mechanicsville,VA,23116,37.691019,-77.389428
Laurel Meadow Elementary Hanover County Public Schools,Laurel Meadow Elementary,Hanover County Public Schools,8248 Lee-Davis Road,Mechanicsville,VA,23111,37.627618,-77.33701
Mechanicsville Elementary Hanover County Public Schools,Mechanicsville Elementary,Hanover County Public Schools,7425 Mechanicsville Elem Drive,Mechanicsville,VA,23111,37.632647,-77.288577
Pearson's Corner Elementary Hanover County Public Schools,Pearson's Corner Elementary,Hanover County Public Schools,8290 New Ashcake Road,Mechanicsville,VA,23116,37.677729,-77.389461
Pole Green Elementary Hanover County Public Schools,Pole Green Elementary,Hanover County Public Schools,8393 Pole Green Park Ln,Mechanicsville,VA,23116,37.643136,-77.307362
Rural Point Elementary Hanover County Public Schools,Rural Point Elementary,Hanover County Public Schools,"Clinchport, VA 24244",Mechanicsville,VA,23116,37.669086,-77.329421
South Anna Elementary Hanover County Public Schools,South Anna Elementary,Hanover County Public Schools,13122 Waltons Tavern Road,Montpelier,VA,23192,37.761802,-77.659919
Varina Elementary Henrico County Public Schools,Varina Elementary,Henrico County Public Schools,2551 New Market Rd,Richmond,VA,23231,37.444865,-77.354419
Cashell Donahoe Elementary Henrico County Public Schools,Cashell Donahoe Elementary,Henrico County Public Schools,1801 Graves Rd,Sandston,VA,23150,37.538235,-77.292703
Chamberlayne Elementary Henrico County Public Schools,Chamberlayne Elementary,Henrico County Public Schools,8200 St Charles Rd,Richmond,VA,23227,37.632008,-77.441534
Charles M. Johnson Elementary Henrico County Public Schools,Charles M. Johnson Elementary,Henrico County Public Schools,5600 Bethlehem Rd,Richmond,VA,23230,37.60288,-77.504957
Colonial Trail Elementary Henrico County Public Schools,Colonial Trail Elementary,Henrico County Public Schools,12101 Bacova Drive,Glen Allen,VA,23059,37.660986,-77.614363
Crestview Elementary Henrico County Public Schools,Crestview Elementary,Henrico County Public Schools,1901 Charles St,Richmond,VA,23226,37.600053,-77.521053
Dumbarton Elementary Henrico County Public Schools,Dumbarton Elementary,Henrico County Public Schools,9000 Hungary Spring Rd,Richmond,VA,23228,37.638938,-77.518568
Echo Lake Elementary Henrico County Public Schools,Echo Lake Elementary,Henrico County Public Schools,5200 Francistown Rd,Glen Allen,VA,23060,37.668259,-77.544437
Elizabeth Holladay Elementary Henrico County Public Schools,Elizabeth Holladay Elementary,Henrico County Public Schools,7300 Galaxie Rd,Richmond,VA,23228,37.619604,-77.489869
Fair Oaks Elementary Henrico County Public Schools,Fair Oaks Elementary,Henrico County Public Schools,201 Jennings Rd,Highland Springs,VA,23075,37.534142,-77.320666
Gayton Elementary Henrico County Public Schools,Gayton Elementary,Henrico County Public Schools,12481 Church Rd,Richmond,VA,23233,37.635401,-77.633011
George F. Baker Elementary Henrico County Public Schools,George F. Baker Elementary,Henrico County Public Schools,6651 Willson Rd,Richmond,VA,23231,37.482763,-77.367692
Glen Allen Elementary Henrico County Public Schools,Glen Allen Elementary,Henrico County Public Schools,11101 Mill Rd,Glen Allen,VA,23060,37.678692,-77.523511
Glen Lea Elementary Henrico County Public Schools,Glen Lea Elementary,Henrico County Public Schools,3909 Austin Ave,Richmond,VA,23222,37.580355,-77.400833
Harold Macon Ratcliffe Elementary Henrico County Public Schools,Harold Macon Ratcliffe Elementary,Henrico County Public Schools,2901 Thalen St,Richmond,VA,23223,37.567972,-77.389142
Harvie Elementary Henrico County Public Schools,Harvie Elementary,Henrico County Public Schools,3401 Harvie Road,Richmond,VA,23223,37.570307,-77.379663
Henry D. Ward Elementary Henrico County Public Schools,Henry D. Ward Elementary,Henrico County Public Schools,3400 Darbytown Road,Richmond,VA,23231,37.467308,-77.324885
Highland Springs Elementary Henrico County Public Schools,Highland Springs Elementary,Henrico County Public Schools,600 Pleasant St,Highland Springs,VA,23075,37.542447,-77.340723
Jackson Davis Elementary Henrico County Public Schools,Jackson Davis Elementary,Henrico County Public Schools,8801 Nesslewood Dr,Richmond,VA,23229,37.623986,-77.559842
Jacob L. Adams Elementary Henrico County Public Schools,Jacob L. Adams Elementary,Henrico County Public Schools,600 S Laburnum Ave,Richmond,VA,23223,37.536419,-77.366154
Laburnum Elementary Henrico County Public Schools,Laburnum Elementary,Henrico County Public Schools,500 Meriwether Ave,Richmond,VA,23222,37.596753,-77.428745
Lakeside Elementary Henrico County Public Schools,Lakeside Elementary,Henrico County Public Schools,6700 Cedar Croft St,Richmond,VA,23228,37.61349,-77.478579
Longdale Elementary Henrico County Public Schools,Longdale Elementary,Henrico County Public Schools,9500 Norfolk St,Glen Allen,VA,23060,37.654473,-77.46429
Maude Trevvett Elementary Henrico County Public Schools,Maude Trevvett Elementary,Henrico County Public Schools,2300 Trevvett Dr,Richmond,VA,23228,37.637809,-77.491512
Maybeury Elementary Henrico County Public Schools,Maybeury Elementary,Henrico County Public Schools,901 Maybeury Dr,Richmond,VA,23229,37.593224,-77.582516
Montrose Elementary Henrico County Public Schools,Montrose Elementary,Henrico County Public Schools,2820 Williamsburg Rd,Richmond,VA,23231,37.519275,-77.376379
Nuckols Farm Elementary Henrico County Public Schools,Nuckols Farm Elementary,Henrico County Public Schools,12351 Graham Meadows Dr,Richmond,VA,23233,37.65606,-77.638948
Pemberton Elementary Henrico County Public Schools,Pemberton Elementary,Henrico County Public Schools,1400 Pemberton Rd,Richmond,VA,23233,37.608143,-77.57952
Pinchbeck Elementary Henrico County Public Schools,Pinchbeck Elementary,Henrico County Public Schools,1275 Gaskins Rd,Richmond,VA,23233,37.602368,-77.590002
R.C. Longan Elementary Henrico County Public Schools,R.C. Longan Elementary,Henrico County Public Schools,9200 Mapleview Ave,Richmond,VA,23294,37.641473,-77.54687
Ridge Elementary Henrico County Public Schools,Ridge Elementary,Henrico County Public Schools,8910 Three Chopt Rd,Richmond,VA,23229,37.605453,-77.55993
Rivers Edge Elementary Henrico County Public Schools,Rivers Edge Elementary,Henrico County Public Schools,11600 Holman Ridge Rd.,Glen Allen,VA,23059,37.686913,-77.578997
Ruby F. Carver Elementary Henrico County Public Schools,Ruby F. Carver Elementary,Henrico County Public Schools,1801 Lauderdale Rd,Richmond,VA,23233,37.607055,-77.628171
Sandston Elementary Henrico County Public Schools,Sandston Elementary,Henrico County Public Schools,7 Naglee Ave,Sandston,VA,23150,37.524717,-77.312328
Seven Pines Elementary Henrico County Public Schools,Seven Pines Elementary,Henrico County Public Schools,301 Beulah Rd,Sandston,VA,23150,37.51632,-77.303978
Shady Grove Elementary Henrico County Public Schools,Shady Grove Elementary,Henrico County Public Schools,12200 Wyndham Lake Dr,Glen Allen,VA,23059,37.694875,-77.614044
Short Pump Elementary Henrico County Public Schools,Short Pump Elementary,Henrico County Public Schools,3425 Pump Rd,Richmond,VA,23233,37.649166,-77.611985
Skipwith Elementary Henrico County Public Schools,Skipwith Elementary,Henrico County Public Schools,2401 Skipwith Rd,Richmond,VA,23294,37.618908,-77.53694
Springfield Park Elementary Henrico County Public Schools,Springfield Park Elementary,Henrico County Public Schools,4301 Fort McHenry Pkwy,Glen Allen,VA,23060,37.657234,-77.565631
Three Chopt Elementary Henrico County Public Schools,Three Chopt Elementary,Henrico County Public Schools,1600 Skipwith Rd,Richmond,VA,23229,37.602658,-77.538699
Tuckahoe Elementary Henrico County Public Schools,Tuckahoe Elementary,Henrico County Public Schools,701 Forest Ave,Richmond,VA,23229,37.584673,-77.55312
Twin Hickory Elementary Henrico County Public Schools,Twin Hickory Elementary,Henrico County Public Schools,4900 Twin Hickory Lake Dr,Glen Allen,VA,23059,37.672523,-77.599055
Hillsboro Charter Academy Loudoun County Public Schools,Hillsboro Charter Academy,Loudoun County Public Schools,37110 Charles Town Pike,Purcellville,VA,20132,39.198997,-77.719758
Aldie Elementary Loudoun County Public Schools,Aldie Elementary,Loudoun County Public Schools,23269 Meetinghouse Ln,Aldie,VA,20105,38.974378,-77.64514
Algonkian Elementary Loudoun County Public Schools,Algonkian Elementary,Loudoun County Public Schools,20196 Carter Court,Sterling,VA,20165,39.056787,-77.409969
Arcola Elementary Loudoun County Public Schools,Arcola Elementary,Loudoun County Public Schools,41740 Tall Cedars Parkway,Aldie,VA,20105,38.936918,-77.559666
Ashburn Elementary Loudoun County Public Schools,Ashburn Elementary,Loudoun County Public Schools,44062 Fincastle Dr,Ashburn,VA,20147,39.05194,-77.476965
Ball's Bluff Elementary Loudoun County Public Schools,Ball's Bluff Elementary,Loudoun County Public Schools,821 Battlefield Pkwy NE,Leesburg,VA,20176,39.123259,-77.534895
Banneker Elementary Loudoun County Public Schools,Banneker Elementary,Loudoun County Public Schools,35231 Snake Hill Rd,Middleburg,VA,20117,39.003721,-77.788144
Buffalo Trail Elementary Loudoun County Public Schools,Buffalo Trail Elementary,Loudoun County Public Schools,42190 Seven Hills Drive,Aldie,VA,20105,38.899874,-77.544215
Catoctin Elementary Loudoun County Public Schools,Catoctin Elementary,Loudoun County Public Schools,311 Catoctin Circle SW,Leesburg,VA,20175,39.109087,-77.574858
Cedar Lane Elementary Loudoun County Public Schools,Cedar Lane Elementary,Loudoun County Public Schools,43700 Tolamac Dr,Ashburn,VA,20147,39.038689,-77.490483
Cool Spring Elementary Loudoun County Public Schools,Cool Spring Elementary,Loudoun County Public Schools,501 Tavistock Dr SE,Leesburg,VA,20175,39.089906,-77.548544
Countryside Elementary Loudoun County Public Schools,Countryside Elementary,Loudoun County Public Schools,20624 Countryside Blvd.,Sterling,VA,20165,39.043329,-77.414107
Creighton's Corner Elementary Loudoun County Public Schools,Creighton's Corner Elementary,Loudoun County Public Schools,23171 Minerva Drive,Ashburn,VA,20148,38.971908,-77.527931
Discovery Elementary Loudoun County Public Schools,Discovery Elementary,Loudoun County Public Schools,44020 Grace Bridge Drive,Ashburn,VA,20147,39.019292,-77.477747
Dominion Trail Elementary Loudoun County Public Schools,Dominion Trail Elementary,Loudoun County Public Schools,44045 Bruceton Mills Circle,Ashburn,VA,20147,39.036008,-77.478757
Emerick Elementary Loudoun County Public Schools,Emerick Elementary,Loudoun County Public Schools,440 S Nursery Ave,Purcellville,VA,20132,39.130402,-77.718866
Evergreen Mill Elementary Loudoun County Public Schools,Evergreen Mill Elementary,Loudoun County Public Schools,491 Evergreen Mill Rd SE,Leesburg,VA,20175,39.09086,-77.572546
Forest Grove Elementary Loudoun County Public Schools,Forest Grove Elementary,Loudoun County Public Schools,46245 Forest Ridge Dr.,Sterling,VA,20164,38.990321,-77.401291
Frances Hazel Reid Elementary Loudoun County Public Schools,Frances Hazel Reid Elementary,Loudoun County Public Schools,800 N. King St.,Leesburg,VA,20176,39.131116,-77.549523
Frederick Douglass Elementary Loudoun County Public Schools,Frederick Douglass Elementary,Loudoun County Public Schools,"510 Principal Drummond Way, SE",Leesburg,VA,20175,39.107408,-77.553362
Goshen Post Elementary Loudoun County Public Schools,Goshen Post Elementary,Loudoun County Public Schools,24945 Lobo Drive,Aldie,VA,20105,38.926982,-77.567728
Guilford Elementary Loudoun County Public Schools,Guilford Elementary,Loudoun County Public Schools,600 W Poplar Rd,Sterling,VA,20164,39.000667,-77.415917
Hamilton Elementary Loudoun County Public Schools,Hamilton Elementary,Loudoun County Public Schools,54 S Kerr St,Hamilton,VA,20158,39.132413,-77.662749
Hillside Elementary Loudoun County Public Schools,Hillside Elementary,Loudoun County Public Schools,43000 Ellzey Dr,Ashburn,VA,20148,39.020846,-77.513988
Horizon Elementary Loudoun County Public Schools,Horizon Elementary,Loudoun County Public Schools,46665 Broadmore Dr,Sterling,VA,20165,39.045146,-77.385917
Hovatter Elementary Loudoun County Public Schools,Hovatter Elementary,Loudoun County Public Schools,41135 collaboration drive,Aldie,VA,20105,38.922265,-77.580657
Hutchison Farm Elementary Loudoun County Public Schools,Hutchison Farm Elementary,Loudoun County Public Schools,42819 Center St.,South Riding,VA,20152,38.913833,-77.522385
Kenneth W.Culbert Elementary Loudoun County Public Schools,Kenneth W.Culbert Elementary,Loudoun County Public Schools,38180 West Colonial Highway,Hamilton,VA,20158,39.140711,-77.681801
Leesburg Elementary Loudoun County Public Schools,Leesburg Elementary,Loudoun County Public Schools,323 Plaza St NE,Leesburg,VA,20176,39.120485,-77.549362
Liberty Elementary Loudoun County Public Schools,Liberty Elementary,Loudoun County Public Schools,25491 Riding Center Drive,South Riding,VA,20152,38.912319,-77.538648
Lincoln Elementary Loudoun County Public Schools,Lincoln Elementary,Loudoun County Public Schools,18048 Lincoln Rd,Purcellville,VA,20132,39.118666,-77.696688
Little River Elementary Loudoun County Public Schools,Little River Elementary,Loudoun County Public Schools,43464 Hyland Hills St,South Riding,VA,20152,38.898314,-77.499313
Lovettsville Elementary Loudoun County Public Schools,Lovettsville Elementary,Loudoun County Public Schools,49 S Loudoun St,Lovettsville,VA,20180,39.265803,-77.640192
Lowes Island Elementary Loudoun County Public Schools,Lowes Island Elementary,Loudoun County Public Schools,20755 Whitewater Dr,Sterling,VA,20165,39.041841,-77.34963
Lucketts Elementary Loudoun County Public Schools,Lucketts Elementary,Loudoun County Public Schools,14550 James Monroe Hwy,Leesburg,VA,20176,39.213428,-77.534283
Madison's Trust Elementary Loudoun County Public Schools,Madison's Trust Elementary,Loudoun County Public Schools,42380 Creighton Rd,Ashburn,VA,20148,38.977813,-77.544107
Meadowland Elementary Loudoun County Public Schools,Meadowland Elementary,Loudoun County Public Schools,729 S Sugarland Run Dr,Sterling,VA,20164,39.036183,-77.371375
Mill Run Elementary Loudoun County Public Schools,Mill Run Elementary,Loudoun County Public Schools,42940 Ridgeway Drive,Ashburn,VA,20148,39.011862,-77.515625
Moorefield Station Elementary Loudoun County Public Schools,Moorefield Station Elementary,Loudoun County Public Schools,22325 Mooreview Parkway,Ashburn,VA,20148,38.999423,-77.505713
Mountain View Elementary Loudoun County Public Schools,Mountain View Elementary,Loudoun County Public Schools,36803 Allder School Rd.,Purcellville,VA,21032,39.156662,-77.731566
Pinebrook Elementary Loudoun County Public Schools,Pinebrook Elementary,Loudoun County Public Schools,25480 Mindful Court,Aldie,VA,20105,38.912469,-77.555981
